Number,Name,Area,Topo Section,County,Classification,Map 1:50k,Map 1:25k,Metres,Feet,Grid ref,Grid ref 10,Drop,Col grid ref,Col height,Feature,Observations,Survey,Streetmap/MountainViews,Google Maps,Hill-bagging,Xcoord,Ycoord,Latitude,Longitude,GridrefXY,Description,Image
2319,Skiddaw,Lake District - Northern Fells,EL01 Skiddaw-knott,Cumberland,"Ma,F,Sim,Hew,N,HHB,W,B,Sy,Fel",89 90,OL4S,930.4,3052,NY260290,NY 26043 29080,705.7,NY 3713 3065,224.7,rock 5m S of trig point between trig point and shelter,note Wainwright and Birkett describe trig point as summit,obvious summit,"https://www.streetmap.co.uk/map?X=326042&Y=529081&SV=326042,529081&A=Y&Z=115","https://www.google.com/maps/search/?api=1&query=54.651391,-3.147761",https://www.hill-bagging.co.uk/hill-view/?qu=S&rf=2319,326042,529081,54.651391,-3.147761,NY2604229081,,
2320,Blencathra,Lake District - Northern Fells,EL01 Skiddaw-knott,Westmorland and Furness,"Ma,Sim,Hew,N,HHB,W,B,Sy,Fel",90,OL5S,867.8,2847,NY323277,NY 32345 27708,461,NY296287,407,rock 1m N of trig point,ground 2m N of trig point about as high,Abney level/Leica RX1250,"https://www.streetmap.co.uk/map?X=332344&Y=527709&SV=332344,527709&A=Y&Z=115","https://www.google.com/maps/search/?api=1&query=54.639949,-3.049789",https://www.hill-bagging.co.uk/hill-view/?qu=S&rf=2320,332344,527709,54.639949,-3.049789,NY3234427709,,
2321,Skiddaw Little Man,Lake District - Northern Fells,EL01 Skiddaw-knott,Cumberland,"Sim,Hew,N,W,B,HHB,Sy,Fel",89 90,OL4S,865,2838,NY266277,NY 26676 27792,60.6,NY 2650 2808,804.4,rock 5m N of cairn,old Wainwright cairn probably stood at NY 26680 27785. Modern cairn rebuilt at NY 26676 27787,Abney level,"https://www.streetmap.co.uk/map?X=326675&Y=527793&SV=326675,527793&A=Y&Z=115","https://www.google.com/maps/search/?api=1&query=54.639911,-3.137629",https://www.hill-bagging.co.uk/hill-view/?qu=S&rf=2321,326675,527793,54.639911,-3.137629,NY2667527793,,
2325,Carl Side,Lake District - Northern Fells,EL01 Skiddaw-knott,Cumberland,"N,W,B,Sy,Fel,sSim",89 90,OL4S,746.8,2450,NY254280,NY 25496 28088,28.3,NY 2558 2826,718.6,loose pile of rocks,,Abney level,"https://www.streetmap.co.uk/map?X=325495&Y=528089&SV=325495,528089&A=Y&Z=115","https://www.google.com/maps/search/?api=1&query=54.642398,-3.155984",https://www.hill-bagging.co.uk/hill-view/?qu=S&rf=2325,325495,528089,54.642398,-3.155984,NY2549528089,,
2326,Long Side,Lake District - Northern Fells,EL01 Skiddaw-knott,Cumberland,"Sim,Hew,N,W,B,Sy,Fel",89 90,OL4S,734,2408,NY248284,NY 24880 28444,39,NY251283,695,cairn,ground 35m W at NY 24844 28447 is 1.5m lower,Abney level,"https://www.streetmap.co.uk/map?X=324879&Y=528445&SV=324879,528445&A=Y&Z=115","https://www.google.com/maps/search/?api=1&query=54.645505,-3.165618",https://www.hill-bagging.co.uk/hill-view/?qu=S&rf=2326,324879,528445,54.645505,-3.165618,NY2487928445,,
2327,Lonscale Fell,Lake District - Northern Fells,EL01 Skiddaw-knott,Cumberland,"Sim,Hew,N,W,B,Sy,Fel",89 90,OL4S,715,2346,NY285271,NY 28545 27144,52,NY280273,663,no feature: ground 25m S of cairn,cairn (NY 28540 27171) is Wainwright and Birkett summit,Abney level,"https://www.streetmap.co.uk/map?X=328544&Y=527145&SV=328544,527145&A=Y&Z=115","https://www.google.com/maps/search/?api=1&query=54.634357,-3.108518",https://www.hill-bagging.co.uk/hill-view/?qu=S&rf=2327,328544,527145,54.634357,-3.108518,NY2854427145,,
2328,Knott,Lake District - Northern Fells,EL01 Skiddaw-knott,Cumberland,"Ma,Sim,Hew,N,W,B,Sy,Fel",89 90,OL4N,710.1,2330,NY296329,NY 29617 32984,242.2,NY 2784 3037,467.9,cairn,,obvious summit,"https://www.streetmap.co.uk/map?X=329616&Y=532985&SV=329616,532985&A=Y&Z=115","https://www.google.com/maps/search/?api=1&query=54.686982,-3.093322",https://www.hill-bagging.co.uk/hill-view/?qu=S&rf=2328,329616,532985,54.686982,-3.093322,NY2961632985,,
2329,Bowscale Fell,Lake District - Northern Fells,EL01 Skiddaw-knott,Westmorland and Furness,"Sim,Hew,N,W,B,Sy,Fel",90,OL5N OL5S,702,2303,NY333305,NY 33339 30541,87,NY327291,615,stone shelter,cairn 50m NE at NY 33382 30609 is c 2m lower,Abney level,"https://www.streetmap.co.uk/map?X=333338&Y=530542&SV=333338,530542&A=Y&Z=115","https://www.google.com/maps/search/?api=1&query=54.665538,-3.035037",https://www.hill-bagging.co.uk/hill-view/?qu=S&rf=2329,333338,530542,54.665538,-3.035037,NY3333830542,,
2330,Ullock Pike,Lake District - Northern Fells,EL01 Skiddaw-knott,Cumberland,"W,B,Sy,Fel,xN",89 90,OL4S,690.4,2265,NY244287,NY 24442 28758,14.4,NY 2454 2865,676,rock,,obvious summit,"https://www.streetmap.co.uk/map?X=324441&Y=528759&SV=324441,528759&A=Y&Z=115","https://www.google.com/maps/search/?api=1&query=54.648261,-3.172486",https://www.hill-bagging.co.uk/hill-view/?qu=S&rf=2330,324441,528759,54.648261,-3.172486,NY2444128759,,
2331,Great Calva,Lake District - Northern Fells,EL01 Skiddaw-knott,Cumberland,"Hu,Sim,Hew,N,sMa,W,B,Sy,Fel",89 90,OL4N,691,2267,NY290311,NY 29089 31188,142,NY 2871 3237,548.8,cairn,,obvious summit,"https://www.streetmap.co.uk/map?X=329088&Y=531189&SV=329088,531189&A=Y&Z=115","https://www.google.com/maps/search/?api=1&query=54.67077,-3.101074",https://www.hill-bagging.co.uk/hill-view/?qu=S&rf=2331,329088,531189,54.67077,-3.101074,NY2908831189,,
2332,Bannerdale Crags,Lake District - Northern Fells,EL01 Skiddaw-knott,Westmorland and Furness,"Sim,Hew,N,W,B,Sy,Fel",90,OL5S,684.1,2244,NY335290,NY 33530 29026,37,NY331296,647,rock 3m NE of pile of stones,Wainwright's cairn is 100m NE at NY 33612 29076 and is lower,Abney level,"https://www.streetmap.co.uk/map?X=333529&Y=529027&SV=333529,529027&A=Y&Z=115","https://www.google.com/maps/search/?api=1&query=54.65195,-3.031731",https://www.hill-bagging.co.uk/hill-view/?qu=S&rf=2332,333529,529027,54.65195,-3.031731,NY3352929027,,
2333,Bakestall,Lake District - Northern Fells,EL01 Skiddaw-knott,Cumberland,"W,B,Sy,Fel",89 90,OL4N OL4S,673.5,2210,NY266307,NY 26631 30738,10.6,NY 2658 3055,663,ground 15m SW of cairn,Wainwright cairn is 100m N at NY 26634 30855,,"https://www.streetmap.co.uk/map?X=326630&Y=530739&SV=326630,530739&A=Y&Z=115","https://www.google.com/maps/search/?api=1&query=54.666375,-3.139066",https://www.hill-bagging.co.uk/hill-view/?qu=S&rf=2333,326630,530739,54.666375,-3.139066,NY2663030739,,
2336,Carrock Fell,Lake District - Northern Fells,EL01 Skiddaw-knott,Cumberland/Westmorland and Furness,"Sim,Hew,N,W,B,Sy,Fel",90,OL5N,662.3,2173,NY341336,NY 34169 33639,89.9,NY 3250 3420,572.4,large cairn,,obvious summit,"https://www.streetmap.co.uk/map?X=334168&Y=533640&SV=334168,533640&A=Y&Z=115","https://www.google.com/maps/search/?api=1&query=54.693484,-3.02287",https://www.hill-bagging.co.uk/hill-view/?qu=S&rf=2336,334168,533640,54.693484,-3.02287,NY3416833640,,
2337,High Pike (Caldbeck),Lake District - Northern Fells,EL01 Skiddaw-knott,Cumberland,"Sim,Hew,N,W,B,Sy,Fel",90,OL5N,658,2159,NY318350,NY 31877 35001,68,NY 3026 3350,589.9,large cairn/windshelter,trig point 8m N is slightly lower,,"https://www.streetmap.co.uk/map?X=331876&Y=535002&SV=331876,535002&A=Y&Z=115","https://www.google.com/maps/search/?api=1&query=54.705416,-3.058742",https://www.hill-bagging.co.uk/hill-view/?qu=S&rf=2337,331876,535002,54.705416,-3.058742,NY3187635002,,
2338,Great Sca Fell,Lake District - Northern Fells,EL01 Skiddaw-knott,Cumberland,"W,B,Sy,Fel,xN",89 90,OL4N,651,2136,NY291339,NY 29137 33900,13,NY292335,638,cairn,ground within 5m radius of similar height; cairn built since Wainwright volume was published,Abney level,"https://www.streetmap.co.uk/map?X=329136&Y=533901&SV=329136,533901&A=Y&Z=115","https://www.google.com/maps/search/?api=1&query=54.695145,-3.100989",https://www.hill-bagging.co.uk/hill-view/?qu=S&rf=2338,329136,533901,54.695145,-3.100989,NY2913633901,,
2340,Mungrisdale Common,Lake District - Northern Fells,EL01 Skiddaw-knott,Westmorland and Furness,"W,Sy",90,OL5S,631.8,2073,NY311292,NY 31169 29204,2.4,NY 3130 2914,629.3,no feature,ground by cairn 120m W at NY 31055 29228 is 0.3m lower,,"https://www.streetmap.co.uk/map?X=331168&Y=529205&SV=331168,529205&A=Y&Z=115","https://www.google.com/maps/search/?api=1&query=54.653232,-3.068359",https://www.hill-bagging.co.uk/hill-view/?qu=S&rf=2340,331168,529205,54.653232,-3.068359,NY3116829205,,
2344,Brae Fell,Lake District - Northern Fells,EL01 Skiddaw-knott,Cumberland,"W,B,Sy,Fel",89 90,OL4N,586,1923,NY288351,NY 28875 35159,14,NY289348,572,large cairn,,obvious summit,"https://www.streetmap.co.uk/map?X=328874&Y=535160&SV=328874,535160&A=Y&Z=115","https://www.google.com/maps/search/?api=1&query=54.70642,-3.105361",https://www.hill-bagging.co.uk/hill-view/?qu=S&rf=2344,328874,535160,54.70642,-3.105361,NY2887435160,,
2345,Lord's Seat,Lake District - North Western Fells,EL02 Gable-grasmoor,Cumberland,"Ma,5,Dew,W,B,Sy,Fel",89 90,OL4S,552,1811,NY204265,NY 20434 26552,237.2,NY 2060 2445,314.8,outcrop 7m S of iron fencepost,,Abney level,"https://www.streetmap.co.uk/map?X=320433&Y=526553&SV=320433,526553&A=Y&Z=115","https://www.google.com/maps/search/?api=1&query=54.627823,-3.233984",https://www.hill-bagging.co.uk/hill-view/?qu=S&rf=2345,320433,526553,54.627823,-3.233984,NY2043326553,,
2346,Meal Fell,Lake District - Northern Fells,EL01 Skiddaw-knott,Cumberland,"W,B,Sy,Fel,s5",89 90,OL4N,549.4,1802,NY283337,NY 28301 33763,29.3,NY 2856 3376,520.1,small cairn,cairn is 2m higher and 65m NE of large shelter (Wainwright/Birkett summit) which is at NY 28258 33711,Abney level,"https://www.streetmap.co.uk/map?X=328300&Y=533764&SV=328300,533764&A=Y&Z=115","https://www.google.com/maps/search/?api=1&query=54.693795,-3.113923",https://www.hill-bagging.co.uk/hill-view/?qu=S&rf=2346,328300,533764,54.693795,-3.113923,NY2830033764,,
2347,Great Cockup,Lake District - Northern Fells,EL01 Skiddaw-knott,Cumberland,"5,Dew,sHu,W,B,Sy,Fel",89 90,OL4N,526,1726,NY273333,NY 27337 33320,92,NY278334,434,cairn,,Abney level,"https://www.streetmap.co.uk/map?X=327336&Y=533321&SV=327336,533321&A=Y&Z=115","https://www.google.com/maps/search/?api=1&query=54.689677,-3.128766",https://www.hill-bagging.co.uk/hill-view/?qu=S&rf=2347,327336,533321,54.689677,-3.128766,NY2733633321,,
2348,Souther Fell,Lake District - Northern Fells,EL01 Skiddaw-knott,Westmorland and Furness,"5,Dew,W,B,Sy,Fel",90,OL5S,522,1713,NY354291,NY 35472 29141,88,NY346279,434,rock,,obvious summit,"https://www.streetmap.co.uk/map?X=335471&Y=529142&SV=335471,529142&A=Y&Z=115","https://www.google.com/maps/search/?api=1&query=54.653236,-3.001663",https://www.hill-bagging.co.uk/hill-view/?qu=S&rf=2348,335471,529142,54.653236,-3.001663,NY3547129142,,
2349,Dodd (Skiddaw),Lake District - Northern Fells,EL01 Skiddaw-knott,Cumberland,"Hu,5,Dew,W,B,Sy,Fel",89 90,OL4S,502,1647,NY244273,NY 24442 27350,110,NY249273,392,ground 2m NE of monument,,Abney level,"https://www.streetmap.co.uk/map?X=324441&Y=527351&SV=324441,527351&A=Y&Z=115","https://www.google.com/maps/search/?api=1&query=54.63561,-3.172122",https://www.hill-bagging.co.uk/hill-view/?qu=S&rf=2349,324441,527351,54.63561,-3.172122,NY2444127351,,
2350,Longlands Fell,Lake District - Northern Fells,EL01 Skiddaw-knott,Cumberland,"4,W,B,Sy,Fel",89 90,OL4N,483,1585,NY275354,NY 27593 35401,37,NY276350,446,cairn,ground 2m SSE is highest point,obvious summit,"https://www.streetmap.co.uk/map?X=327592&Y=535402&SV=327592,535402&A=Y&Z=115","https://www.google.com/maps/search/?api=1&query=54.708411,-3.125313",https://www.hill-bagging.co.uk/hill-view/?qu=S&rf=2350,327592,535402,54.708411,-3.125313,NY2759235402,,
2351,Binsey,Lake District - Northern Fells,EL01 Skiddaw-knott,Cumberland,"Ma,4,W,B,Sy,Fel",89 90,OL4N,446.7,1466,NY225355,NY 22513 35528,241.9,NY 2517 3322,204.8,trig point,ground by windshelter 7m W at NY 22507 35528 is 10cm lower although loose rocks are higher; cairn 14m E at NY 22529 35525 is 30cm lower,Abney level,"https://www.streetmap.co.uk/map?X=322512&Y=535529&SV=322512,535529&A=Y&Z=115","https://www.google.com/maps/search/?api=1&query=54.708795,-3.204172",https://www.hill-bagging.co.uk/hill-view/?qu=S&rf=2351,322512,535529,54.708795,-3.204172,NY2251235529,,
2352,Latrigg,Lake District - Northern Fells,EL01 Skiddaw-knott,Cumberland,"3,W,B,Sy,Fel",89 90,OL4S,369,1211,NY279247,NY 27903 24714,72,NY281253,297,no feature,"Wainwright summit position uncertain, 1203' height 80m SW at NY 27849 24654 is c.2m lower",Abney level,"https://www.streetmap.co.uk/map?X=327902&Y=524715&SV=327902,524715&A=Y&Z=115","https://www.google.com/maps/search/?api=1&query=54.612432,-3.117863",https://www.hill-bagging.co.uk/hill-view/?qu=S&rf=2352,327902,524715,54.612432,-3.117863,NY2790224715,,
2359,Scafell Pike,Lake District - Southern Fells,EL03 Scafell-illgill,Cumberland,"Ma,F,Sim,Hew,N,HHB,W,B,Sy,Fel,CoH,CoA,CoU",89 90,OL6N,978.07,3209,NY215072,NY 21541 07216,912.2,SJ 6368 3387,65.9,rock by trig point,,Leica NA730/Leica GS15/Leica RX1250,"https://www.streetmap.co.uk/map?X=321540&Y=507217&SV=321540,507217&A=Y&Z=115","https://www.google.com/maps/search/?api=1&query=54.454263,-3.211682",https://www.hill-bagging.co.uk/hill-view/?qu=S&rf=2359,321540,507217,54.454263,-3.211682,NY2154007217,,
2360,Scafell,Lake District - Southern Fells,EL03 Scafell-illgill,Cumberland,"Hu,F,Sim,Hew,N,HHB,W,B,Sy,Fel",89 90,OL6N,963.9,3162,NY206064,NY 20682 06478,132.2,NY 2102 0690,831.6,cairn on rock N of windshelter,,Abney level/Leica RX1250,"https://www.streetmap.co.uk/map?X=320681&Y=506479&SV=320681,506479&A=Y&Z=115","https://www.google.com/maps/search/?api=1&query=54.447498,-3.224731",https://www.hill-bagging.co.uk/hill-view/?qu=S&rf=2360,320681,506479,54.447498,-3.224731,NY2068106479,,
2364,Great End,Lake District - Southern Fells,EL03 Scafell-illgill,Cumberland,"Sim,Hew,N,W,B,HHB,Sy,Fel",89 90,OL6N,909.5,2984,NY226083,NY 22672 08385,56.1,NY 2257 0802,853.4,cairn on outcrop,cairn 160m W at NY 22532 08465 is c 1m lower,Abney level/Leica RX1250,"https://www.streetmap.co.uk/map?X=322671&Y=508386&SV=322671,508386&A=Y&Z=115","https://www.google.com/maps/search/?api=1&query=54.46494,-3.194548",https://www.hill-bagging.co.uk/hill-view/?qu=S&rf=2364,322671,508386,54.46494,-3.194548,NY2267108386,,
2365,Bowfell,Lake District - Southern Fells,EL03 Scafell-illgill,Cumberland/Westmorland and Furness,"Hu,Sim,Hew,N,HHB,sMa,W,B,Sy,Fel",89 90,OL6N,902.9,2962,NY244064,NY 24475 06449,148.2,NY 2335 0804,754.6,rib of rock 5m NE of cairn,,Abney level/Leica RX1250,"https://www.streetmap.co.uk/map?X=324474&Y=506450&SV=324474,506450&A=Y&Z=115","https://www.google.com/maps/search/?api=1&query=54.447816,-3.166242",https://www.hill-bagging.co.uk/hill-view/?qu=S&rf=2365,324474,506450,54.447816,-3.166242,NY2447406450,,
2367,Great Gable,Lake District - Western Fells,EL02 Gable-grasmoor,Cumberland,"Ma,Sim,Hew,N,W,B,HHB,Sy,Fel",89 90,OL4S OL6N,898.8,2949,NY211103,NY 21101 10320,425.5,NY 2194 0948,473.3,rock,,obvious summit,"https://www.streetmap.co.uk/map?X=321100&Y=510321&SV=321100,510321&A=Y&Z=115","https://www.google.com/maps/search/?api=1&query=54.482084,-3.219296",https://www.hill-bagging.co.uk/hill-view/?qu=S&rf=2367,321100,510321,54.482084,-3.219296,NY2110010321,,
2368,Pillar,Lake District - Western Fells,EL02 Gable-grasmoor,Cumberland,"Ma,Sim,Hew,N,W,B,HHB,Sy,Fel",89 90,OL4S,892.4,2928,NY171121,NY 17126 12104,348.7,NY 1916 1142,543.7,trig point,,obvious summit,"https://www.streetmap.co.uk/map?X=317125&Y=512105&SV=317125,512105&A=Y&Z=115","https://www.google.com/maps/search/?api=1&query=54.497479,-3.281134",https://www.hill-bagging.co.uk/hill-view/?qu=S&rf=2368,317125,512105,54.497479,-3.281134,NY1712512105,,
2369,Esk Pike,Lake District - Southern Fells,EL03 Scafell-illgill,Cumberland,"Hu,Sim,Hew,N,W,B,HHB,Sy,Fel",89 90,OL6N,885,2904,NY236075,NY 23651 07504,112,NY240071,773,rib of rock with small cairn,rib of rock 4mNE is as high; large cairn 30m NE at NY 23671 07527 is lower,Abney level,"https://www.streetmap.co.uk/map?X=323650&Y=507505&SV=323650,507505&A=Y&Z=115","https://www.google.com/maps/search/?api=1&query=54.457172,-3.179219",https://www.hill-bagging.co.uk/hill-view/?qu=S&rf=2369,323650,507505,54.457172,-3.179219,NY2365007505,,
2371,Crinkle Crags - Long Top,Lake District - Southern Fells,EL03 Scafell-illgill,Westmorland and Furness,"Hu,Sim,Hew,N,W,B,HHB,Sy,Fel",89 90,OL6N,859,2818,NY248048,NY 24866 04872,139,NY248060,720,cairn,North cairn is higher than South cairn,obvious summit,"https://www.streetmap.co.uk/map?X=324865&Y=504873&SV=324865,504873&A=Y&Z=115","https://www.google.com/maps/search/?api=1&query=54.433704,-3.159813",https://www.hill-bagging.co.uk/hill-view/?qu=S&rf=2371,324865,504873,54.433704,-3.159813,NY2486504873,,
2372,Grasmoor,Lake District - North Western Fells,EL02 Gable-grasmoor,Cumberland,"Ma,Sim,Hew,N,W,B,HHB,Sy,Fel",89 90,OL4S,851.6,2794,NY174203,NY 17485 20351,518.2,NY 1928 1761,333.4,ground by windshelter,ground 100m ENE at NY 17580 20375 is 0.5m lower,Abney level,"https://www.streetmap.co.uk/map?X=317484&Y=520352&SV=317484,520352&A=Y&Z=115","https://www.google.com/maps/search/?api=1&query=54.571635,-3.277905",https://www.hill-bagging.co.uk/hill-view/?qu=S&rf=2372,317484,520352,54.571635,-3.277905,NY1748420352,,
2373,Scoat Fell,Lake District - Western Fells,EL02 Gable-grasmoor,Cumberland,"Sim,Hew,N,W,B,HHB,Sy,Fel",89,OL4S,841,2759,NY159113,NY 15940 11394,85,NY168117,756,rock N of wall,,Abney level,"https://www.streetmap.co.uk/map?X=315939&Y=511395&SV=315939,511395&A=Y&Z=115","https://www.google.com/maps/search/?api=1&query=54.490904,-3.299239",https://www.hill-bagging.co.uk/hill-view/?qu=S&rf=2373,315939,511395,54.490904,-3.299239,NY1593911395,,
2374,Crag Hill,Lake District - North Western Fells,EL02 Gable-grasmoor,Cumberland,"Hu,Sim,Hew,N,HHB,W,B,Sy,Fel",89 90,OL4S,839.2,2753,NY192203,NY 19274 20333,116.7,NY 1860 2015,722.5,no feature 35m S of trig point,30cm higher than trig point at NY 19270 20365. Note trig point is Wainwright summit.,Abney level,"https://www.streetmap.co.uk/map?X=319273&Y=520334&SV=319273,520334&A=Y&Z=115","https://www.google.com/maps/search/?api=1&query=54.571762,-3.250234",https://www.hill-bagging.co.uk/hill-view/?qu=S&rf=2374,319273,520334,54.571762,-3.250234,NY1927320334,,
2378,Red Pike (Wasdale),Lake District - Western Fells,EL02 Gable-grasmoor,Cumberland,"Sim,Hew,N,W,B,Sy,Fel",89,OL4S OL6N,826,2710,NY165106,NY 16532 10606,64,NY162110,762,cairn,,,"https://www.streetmap.co.uk/map?X=316531&Y=510607&SV=316531,510607&A=Y&Z=115","https://www.google.com/maps/search/?api=1&query=54.483922,-3.289879",https://www.hill-bagging.co.uk/hill-view/?qu=S&rf=2378,316531,510607,54.483922,-3.289879,NY1653110607,,
2379,Steeple,Lake District - Western Fells,EL02 Gable-grasmoor,Cumberland,"N,sSim,W,B,Sy,Fel",89,OL4S,819,2687,NY157116,NY 15755 11674,21,NY157116,798,rock 2m NE of cairn,,obvious summit,"https://www.streetmap.co.uk/map?X=315754&Y=511675&SV=315754,511675&A=Y&Z=115","https://www.google.com/maps/search/?api=1&query=54.493389,-3.302174",https://www.hill-bagging.co.uk/hill-view/?qu=S&rf=2379,315754,511675,54.493389,-3.302174,NY1575411675,,
2382,Lingmell,Lake District - Southern Fells,EL03 Scafell-illgill,Cumberland,"Sim,Hew,N,W,B,Sy,Fel",89 90,OL6N,807,2648,NY209081,NY 20933 08176,72,NY210079,735,rock 3m E of cairn,finger of rock on N top is at least as high,Abney level,"https://www.streetmap.co.uk/map?X=320932&Y=508177&SV=320932,508177&A=Y&Z=115","https://www.google.com/maps/search/?api=1&query=54.462794,-3.221315",https://www.hill-bagging.co.uk/hill-view/?qu=S&rf=2382,320932,508177,54.462794,-3.221315,NY2093208177,,
2383,Kirk Fell,Lake District - Western Fells,EL02 Gable-grasmoor,Cumberland,"Ma,Sim,Hew,N,W,B,Sy,Fel",89 90,OL4S OL6N,802,2631,NY194104,NY 19495 10486,183,NY 2052 1065,619.5,large windshelter,,obvious summit,"https://www.streetmap.co.uk/map?X=319494&Y=510487&SV=319494,510487&A=Y&Z=115","https://www.google.com/maps/search/?api=1&query=54.483323,-3.244123",https://www.hill-bagging.co.uk/hill-view/?qu=S&rf=2383,319494,510487,54.483323,-3.244123,NY1949410487,,
2384,Green Gable,Lake District - Western Fells,EL02 Gable-grasmoor,Cumberland,"Sim,Hew,N,W,B,Sy,Fel",89 90,OL4S OL6N,801,2628,NY214107,NY 21466 10716,50,NY214105,751,cairn,,obvious summit,"https://www.streetmap.co.uk/map?X=321465&Y=510717&SV=321465,510717&A=Y&Z=115","https://www.google.com/maps/search/?api=1&query=54.485699,-3.213769",https://www.hill-bagging.co.uk/hill-view/?qu=S&rf=2384,321465,510717,54.485699,-3.213769,NY2146510717,,
2385,Haycock,Lake District - Western Fells,EL02 Gable-grasmoor,Cumberland,"Sim,Hew,N,sHu,W,B,Sy,Fel",89,OL4S OL6N,797,2615,NY144107,NY 14480 10716,94,NY148109,703,large cairn on rock on S side of wall,Wainwright claims windshelter on N side of wall (NY 14475 10726) is marginally higher,,"https://www.streetmap.co.uk/map?X=314478&Y=510717&SV=314478,510717&A=Y&Z=115","https://www.google.com/maps/search/?api=1&query=54.484568,-3.321576",https://www.hill-bagging.co.uk/hill-view/?qu=S&rf=2385,314478,510717,54.484568,-3.321576,NY1447810717,,
2386,Grisedale Pike,Lake District - North Western Fells,EL02 Gable-grasmoor,Cumberland,"Ma,Sim,Hew,N,W,B,Sy,Fel",89 90,OL4S,790.3,2593,NY198225,NY 19841 22547,191,NY 1886 2126,599.4,cairn,,,"https://www.streetmap.co.uk/map?X=319840&Y=522548&SV=319840,522548&A=Y&Z=115","https://www.google.com/maps/search/?api=1&query=54.591745,-3.242071",https://www.hill-bagging.co.uk/hill-view/?qu=S&rf=2386,319840,522548,54.591745,-3.242071,NY1984022548,,
2388,Allen Crags,Lake District - Southern Fells,EL03 Scafell-illgill,Cumberland,"Sim,Hew,N,W,B,Sy,Fel",89 90,OL6N,785,2575,NY236085,NY 23671 08527,61,NY234083,724,cairn,,obvious summit,"https://www.streetmap.co.uk/map?X=323670&Y=508528&SV=323670,508528&A=Y&Z=115","https://www.google.com/maps/search/?api=1&query=54.466367,-3.179175",https://www.hill-bagging.co.uk/hill-view/?qu=S&rf=2388,323670,508528,54.466367,-3.179175,NY2367008528,,
2389,Glaramara,Lake District - Southern Fells,EL03 Scafell-illgill,Cumberland,"Hu,Sim,Hew,N,W,B,Sy,Fel",89 90,OL4S OL6N,782.7,2568,NY245104,NY 24600 10456,121.9,NY 2408 0940,660.8,pointed rock 10m south of cairn,Nuttall summit; Wainwright summit (cairn) 160m NE at NY 24722 10561 and cairn 55m W are both c 1m lower,Abney level,"https://www.streetmap.co.uk/map?X=324599&Y=510457&SV=324599,510457&A=Y&Z=115","https://www.google.com/maps/search/?api=1&query=54.483839,-3.165338",https://www.hill-bagging.co.uk/hill-view/?qu=S&rf=2389,324599,510457,54.483839,-3.165338,NY2459910457,,
2393,Sail,Lake District - North Western Fells,EL02 Gable-grasmoor,Cumberland,"Sim,Hew,N,W,B,Sy,Fel",89 90,OL4S,773,2536,NY198202,NY 19817 20275,32,NY196202,741,ground 10m SW of cairn,cairn is at NY 19821 20281,Abney level,"https://www.streetmap.co.uk/map?X=319816&Y=520276&SV=319816,520276&A=Y&Z=115","https://www.google.com/maps/search/?api=1&query=54.571328,-3.241821",https://www.hill-bagging.co.uk/hill-view/?qu=S&rf=2393,319816,520276,54.571328,-3.241821,NY1981620276,,
2394,Wandope,Lake District - North Western Fells,EL02 Gable-grasmoor,Cumberland,"Sim,Hew,N,W,B,Sy,Fel",89 90,OL4S,773.9,2539,NY188197,NY 18820 19738,30.5,NY 1879 2002,743.4,small pile of stones,,Abney level,"https://www.streetmap.co.uk/map?X=318819&Y=519731&SV=318819,519731&A=Y&Z=115","https://www.google.com/maps/search/?api=1&query=54.566272,-3.257089",https://www.hill-bagging.co.uk/hill-view/?qu=S&rf=2394,318819,519731,54.566272,-3.257089,NY1881919731,,
2395,Hopegill Head,Lake District - North Western Fells,EL02 Gable-grasmoor,Cumberland,"Sim,Hew,N,sHu,W,B,Sy,Fel",89 90,OL4S,769.6,2525,NY185221,NY 18567 22162,97.2,NY 1906 2198,672.4,rock,,obvious summit,"https://www.streetmap.co.uk/map?X=318566&Y=522163&SV=318566,522163&A=Y&Z=115","https://www.google.com/maps/search/?api=1&query=54.588082,-3.261675",https://www.hill-bagging.co.uk/hill-view/?qu=S&rf=2395,318566,522163,54.588082,-3.261675,NY1856622163,,
2396,High Raise (Langdale),Lake District - Central Fells,EL03 Scafell-illgill,Cumberland,"Ma,Sim,Hew,N,W,B,Sy,Fel",89 90,OL4S OL6N,762.5,2502,NY280095,NY 28089 09523,284.2,NY 2644 0879,478.3,rock 20m SE of trig point,rock is 30cm higher than flush bracket,Abney level,"https://www.streetmap.co.uk/map?X=328088&Y=509524&SV=328088,509524&A=Y&Z=115","https://www.google.com/maps/search/?api=1&query=54.475962,-3.111268",https://www.hill-bagging.co.uk/hill-view/?qu=S&rf=2396,328088,509524,54.475962,-3.111268,NY2808809524,,
2397,Slight Side,Lake District - Southern Fells,EL03 Scafell-illgill,Cumberland,"W,B,Sy,Fel,xN",89 90,OL6N,762,2500,NY209050,NY 20991 05014,14,NY209051,748,small cairn on rocky tor,tor 40m NW at NY 20970 05030 is 30cm lower,Abney level,"https://www.streetmap.co.uk/map?X=320990&Y=505015&SV=320990,505015&A=Y&Z=115","https://www.google.com/maps/search/?api=1&query=54.434392,-3.219575",https://www.hill-bagging.co.uk/hill-view/?qu=S&rf=2397,320990,505015,54.434392,-3.219575,NY2099005015,,
2399,Red Pike (Buttermere),Lake District - Western Fells,EL02 Gable-grasmoor,Cumberland,"Sim,Hew,N,W,B,Sy,Fel",89,OL4S,755.3,2478,NY160154,NY 16060 15458,41.3,NY 1622 1510,714,rock 8m NE of cairn,cairn is at NY 16054 15453,Abney level,"https://www.streetmap.co.uk/map?X=316058&Y=515459&SV=316058,515459&A=Y&Z=115","https://www.google.com/maps/search/?api=1&query=54.527438,-3.298545",https://www.hill-bagging.co.uk/hill-view/?qu=S&rf=2399,316058,515459,54.527438,-3.298545,NY1605815459,,
2400,Dale Head,Lake District - North Western Fells,EL02 Gable-grasmoor,Cumberland,"Ma,Sim,Hew,N,W,B,Sy,Fel",89 90,OL4S,754,2474,NY222153,NY 22289 15325,397.7,NY 2245 1355,356.3,no feature 18m W of large cairn,ground at cairn (Wainwright/Birkett) at NY 22310 15330 is 30cm lower,Abney level,"https://www.streetmap.co.uk/map?X=322288&Y=515326&SV=322288,515326&A=Y&Z=115","https://www.google.com/maps/search/?api=1&query=54.527238,-3.202284",https://www.hill-bagging.co.uk/hill-view/?qu=S&rf=2400,322288,515326,54.527238,-3.202284,NY2228815326,,
2401,High Crag,Lake District - Western Fells,EL02 Gable-grasmoor,Cumberland,"Sim,Hew,N,W,B,Sy,Fel",89 90,OL4S,744.8,2444,NY180139,NY 18049 13996,34.8,NY 1734 1429,710,southerly of two cairns,cairn to N is lower,Abney level,"https://www.streetmap.co.uk/map?X=318048&Y=513997&SV=318048,513997&A=Y&Z=115","https://www.google.com/maps/search/?api=1&query=54.514628,-3.267412",https://www.hill-bagging.co.uk/hill-view/?qu=S&rf=2401,318048,513997,54.514628,-3.267412,NY1804813997,,
2405,Robinson,Lake District - North Western Fells,EL02 Gable-grasmoor,Cumberland,"Ma,Sim,Hew,N,W,B,Sy,Fel",89 90,OL4S,737.6,2420,NY201168,NY 20193 16870,161.9,NY 2074 1610,575.7,rock,rock 4m SW is just lower; rock under cairn 10m W at NY 20180 16873 is c 30cm lower,Abney level,"https://www.streetmap.co.uk/map?X=320192&Y=516871&SV=320192,516871&A=Y&Z=115","https://www.google.com/maps/search/?api=1&query=54.540794,-3.235082",https://www.hill-bagging.co.uk/hill-view/?qu=S&rf=2405,320192,516871,54.540794,-3.235082,NY2019216871,,
2406,Harrison Stickle,Lake District - Central Fells,EL03 Scafell-illgill,Westmorland and Furness,"Sim,Hew,N,W,B,Sy,Fel",89 90,OL6N,735.3,2412,NY281074,NY 28173 07400,54.1,NY 2787 0865,681.2,rock 6m SSE of cairn,,,"https://www.streetmap.co.uk/map?X=328172&Y=507401&SV=328172,507401&A=Y&Z=115","https://www.google.com/maps/search/?api=1&query=54.456898,-3.109455",https://www.hill-bagging.co.uk/hill-view/?qu=S&rf=2406,328172,507401,54.456898,-3.109455,NY2817207401,,
2407,Sergeant Man,Lake District - Central Fells,EL03 Scafell-illgill,Westmorland and Furness,"W,B,Sy,Fel,xN",89 90,OL6N,736,2415,NY286088,NY 28644 08891,12,NY286089,724,small cairn on outcrop,,,"https://www.streetmap.co.uk/map?X=328643&Y=508892&SV=328643,508892&A=Y&Z=115","https://www.google.com/maps/search/?api=1&query=54.470362,-3.102552",https://www.hill-bagging.co.uk/hill-view/?qu=S&rf=2407,328643,508892,54.470362,-3.102552,NY2864308892,,
2411,Hindscarth,Lake District - North Western Fells,EL02 Gable-grasmoor,Cumberland,"Sim,Hew,N,W,B,Sy,Fel",89 90,OL4S,727,2385,NY215165,NY 21567 16516,71,NY215157,656,rock by windshelter,several rocks nearby look higher but are not,Abney level,"https://www.streetmap.co.uk/map?X=321566&Y=516517&SV=321566,516517&A=Y&Z=115","https://www.google.com/maps/search/?api=1&query=54.537828,-3.213755",https://www.hill-bagging.co.uk/hill-view/?qu=S&rf=2411,321566,516517,54.537828,-3.213755,NY2156616517,,
2412,Ullscarf,Lake District - Central Fells,EL03 Scafell-illgill,Cumberland,"Hu,Sim,Hew,N,W,B,Sy,Fel",89 90,OL4S,723,2372,NY291121,NY 29150 12172,114.1,NY 2857 1052,608.9,cairn,,Abney level/Leica RX1250,"https://www.streetmap.co.uk/map?X=329149&Y=512173&SV=329149,512173&A=Y&Z=115","https://www.google.com/maps/search/?api=1&query=54.499914,-3.095534",https://www.hill-bagging.co.uk/hill-view/?qu=S&rf=2412,329149,512173,54.499914,-3.095534,NY2914912173,,
2413,Thunacar Knott,Lake District - Central Fells,EL03 Scafell-illgill,Westmorland and Furness,"N,sSim,W,B,Sy,Fel",89 90,OL6N,723,2372,NY279079,NY 27975 07992,28,NY280077,695,rock 3m NNE of cairn,Wainwright summit is large cairn on mound 155m NNW at NY 27913 08136,Abney level,"https://www.streetmap.co.uk/map?X=327974&Y=507993&SV=327974,507993&A=Y&Z=115","https://www.google.com/maps/search/?api=1&query=54.462189,-3.112653",https://www.hill-bagging.co.uk/hill-view/?qu=S&rf=2413,327974,507993,54.462189,-3.112653,NY2797407993,,
2416,Brandreth,Lake District - Western Fells,EL02 Gable-grasmoor,Cumberland,"Sim,Hew,N,W,B,Sy,Fel",89 90,OL4S,715,2346,NY214119,NY 21454 11916,60,NY215115,655,rock,Wainwright cairn 35m ENE at NY 21489 11928 and cairn 75m SE at NY 21518 11873 are both c 0.4m lower,Abney level,"https://www.streetmap.co.uk/map?X=321453&Y=511917&SV=321453,511917&A=Y&Z=115","https://www.google.com/maps/search/?api=1&query=54.496479,-3.214274",https://www.hill-bagging.co.uk/hill-view/?qu=S&rf=2416,321453,511917,54.496479,-3.214274,NY2145311917,,
2417,Pike of Stickle,Lake District - Central Fells,EL03 Scafell-illgill,Westmorland and Furness,"Sim,Hew,N,W,B,Sy,Fel",89 90,OL6N,708.4,2324,NY273073,NY 27399 07356,55,NY275077,653,cairn,,obvious summit,"https://www.streetmap.co.uk/map?X=327398&Y=507357&SV=327398,507357&A=Y&Z=115","https://www.google.com/maps/search/?api=1&query=54.456393,-3.121381",https://www.hill-bagging.co.uk/hill-view/?qu=S&rf=2417,327398,507357,54.456393,-3.121381,NY2739807357,,
2418,Whiteside (West Top),Lake District - North Western Fells,EL02 Gable-grasmoor,Cumberland,"N,W,B,Sy,Fel",89 90,OL4S,707,2320,NY170219,NY 17045 21948,17,NY171220,690,a few stones,,obvious summit,"https://www.streetmap.co.uk/map?X=317044&Y=521949&SV=317044,521949&A=Y&Z=115","https://www.google.com/maps/search/?api=1&query=54.585912,-3.285161",https://www.hill-bagging.co.uk/hill-view/?qu=S&rf=2418,317044,521949,54.585912,-3.285161,NY1704421949,,
2419,Pike of Blisco,Lake District - Southern Fells,EL03 Scafell-illgill,Westmorland and Furness,"Ma,Sim,Hew,N,W,B,Sy,Fel",89 90,OL6N,703,2306,NY271042,NY 27119 04212,177,NY269035,526.1,cairn,cairn 90m SE at NY 27180 04145 is 3m lower,Abney level,"https://www.streetmap.co.uk/map?X=327118&Y=504213&SV=327118,504213&A=Y&Z=115","https://www.google.com/maps/search/?api=1&query=54.428102,-3.124925",https://www.hill-bagging.co.uk/hill-view/?qu=S&rf=2419,327118,504213,54.428102,-3.124925,NY2711804213,,
2422,Cold Pike,Lake District - Southern Fells,EL03 Scafell-illgill,Cumberland/Westmorland and Furness,"Sim,Hew,N,W,B,Sy,Fel",89 90,OL6N,700.1,2297,NY262036,NY 26288 03613,46.1,NY 2582 0379,654,cairn perched on tor,,Abney level/Leica RX1250,"https://www.streetmap.co.uk/map?X=326287&Y=503614&SV=326287,503614&A=Y&Z=115","https://www.google.com/maps/search/?api=1&query=54.4226,-3.137582",https://www.hill-bagging.co.uk/hill-view/?qu=S&rf=2422,326287,503614,54.4226,-3.137582,NY2628703614,,
2423,Pavey Ark,Lake District - Central Fells,EL03 Scafell-illgill,Westmorland and Furness,"N,W,B,Sy,Fel",89 90,OL6N,701.6,2302,NY284079,NY 28456 07906,16,NY 2838 0790,685.6,tiny cairn on rock,,,"https://www.streetmap.co.uk/map?X=328455&Y=507907&SV=328455,507907&A=Y&Z=115","https://www.google.com/maps/search/?api=1&query=54.461485,-3.105214",https://www.hill-bagging.co.uk/hill-view/?qu=S&rf=2423,328455,507907,54.461485,-3.105214,NY2845507907,,
2424,Grey Knotts,Lake District - Western Fells,EL02 Gable-grasmoor,Cumberland,"N,W,B,Sy,Fel",89 90,OL4S,697,2287,NY217125,NY 21730 12566,16,NY216122,681,cairn on outcrop on W top,outcrop 155m ENE at NY 21876 12581 is as high and OS bolt and cairn 45m NE of this at NY 21914 12615 is lower,Abney level,"https://www.streetmap.co.uk/map?X=321729&Y=512567&SV=321729,512567&A=Y&Z=115","https://www.google.com/maps/search/?api=1&query=54.502362,-3.210186",https://www.hill-bagging.co.uk/hill-view/?qu=S&rf=2424,321729,512567,54.502362,-3.210186,NY2172912567,,
2425,Caw Fell,Lake District - Western Fells,EL02 Gable-grasmoor,Cumberland,"N,sSim,W,B,Sy,Fel",89,OL4S 303,697,2287,NY132109,NY 13210 10996,22,NY134110,675,rock 13m E of cairn,cairn is Wainwright and Birkett summit,Abney level,"https://www.streetmap.co.uk/map?X=313208&Y=510997&SV=313208,510997&A=Y&Z=115","https://www.google.com/maps/search/?api=1&query=54.486868,-3.341256",https://www.hill-bagging.co.uk/hill-view/?qu=S&rf=2425,313208,510997,54.486868,-3.341256,NY1320810997,,
2427,Seatallan,Lake District - Western Fells,EL02 Gable-grasmoor,Cumberland,"Ma,Sim,Hew,N,W,B,Sy,Fel",89,OL6N,693,2274,NY140084,NY 14003 08442,193.1,NY 1427 0919,499.8,no feature,summit is 60m NE of trig point (NY 13963 08401) and 15m SSW of small cairn (NY 14008 08455),Abney level,"https://www.streetmap.co.uk/map?X=314001&Y=508443&SV=314001,508443&A=Y&Z=115","https://www.google.com/maps/search/?api=1&query=54.464056,-3.328274",https://www.hill-bagging.co.uk/hill-view/?qu=S&rf=2427,314001,508443,54.464056,-3.328274,NY1400108443,,
2430,Loft Crag,Lake District - Central Fells,EL03 Scafell-illgill,Westmorland and Furness,"N,sSim,W,B,Sy,Fel",89 90,OL6N,681.7,2237,NY277071,NY 27745 07132,23.6,NY 2765 0722,658.1,small cairn on outcrop,,obvious summit,"https://www.streetmap.co.uk/map?X=327744&Y=507133&SV=327744,507133&A=Y&Z=115","https://www.google.com/maps/search/?api=1&query=54.454429,-3.115991",https://www.hill-bagging.co.uk/hill-view/?qu=S&rf=2430,327744,507133,54.454429,-3.115991,NY2774407133,,
2432,Scar Crags,Lake District - North Western Fells,EL02 Gable-grasmoor,Cumberland,"Sim,Hew,N,W,B,Sy,Fel",89 90,OL4S,672,2205,NY208206,NY 20850 20662,54,NY204204,618,cairn,0.75m higher than ground around Wainwright cairn 120m SW at NY 20749 20598,Abney level,"https://www.streetmap.co.uk/map?X=320849&Y=520663&SV=320849,520663&A=Y&Z=115","https://www.google.com/maps/search/?api=1&query=54.574968,-3.225951",https://www.hill-bagging.co.uk/hill-view/?qu=S&rf=2432,320849,520663,54.574968,-3.225951,NY2084920663,,
2434,Whiteless Pike,Lake District - North Western Fells,EL02 Gable-grasmoor,Cumberland,"Sim,Hew,N,W,B,Sy,Fel",89 90,OL4S,660,2165,NY180189,NY 18016 18976,36.2,NY 1812 1913,623.8,no feature 5m W of small pile of stones,,Abney level,"https://www.streetmap.co.uk/map?X=318015&Y=518977&SV=318015,518977&A=Y&Z=115","https://www.google.com/maps/search/?api=1&query=54.559367,-3.26931",https://www.hill-bagging.co.uk/hill-view/?qu=S&rf=2434,318015,518977,54.559367,-3.26931,NY1801518977,,
2436,High Spy,Lake District - North Western Fells,EL02 Gable-grasmoor,Cumberland,"Hu,Sim,Hew,N,sMa,W,B,Sy,Fel",89 90,OL4S,653.1,2143,NY234162,NY 23414 16233,147.8,NY 2330 1537,505.3,large cairn,ground 7m NE and also 30m S at NY 23420 16200 is as high,Abney level/Leica RX1250,"https://www.streetmap.co.uk/map?X=323413&Y=516234&SV=323413,516234&A=Y&Z=115","https://www.google.com/maps/search/?api=1&query=54.535568,-3.185141",https://www.hill-bagging.co.uk/hill-view/?qu=S&rf=2436,323413,516234,54.535568,-3.185141,NY2341316234,,
2437,Rossett Pike,Lake District - Southern Fells,EL03 Scafell-illgill,Cumberland,"Sim,Hew,N,W,B,Sy,Fel",89 90,OL6N,651,2136,NY249075,NY 24911 07568,42,NY246075,609,rock 10m W of cairn,,Abney level,"https://www.streetmap.co.uk/map?X=324910&Y=507569&SV=324910,507569&A=Y&Z=115","https://www.google.com/maps/search/?api=1&query=54.457935,-3.159804",https://www.hill-bagging.co.uk/hill-view/?qu=S&rf=2437,324910,507569,54.457935,-3.159804,NY2491007569,,
2438,Fleetwith Pike,Lake District - Western Fells,EL02 Gable-grasmoor,Cumberland,"Hu,Sim,Hew,N,W,B,Sy,Fel",89 90,OL4S,648.9,2129,NY205141,NY 20592 14166,118.4,NY 2150 1346,530.5,rock 5m from cairn,higher ground may be hidden beneath the cairn,Leica Disto D510/Leica RX1250,"https://www.streetmap.co.uk/map?X=320591&Y=514167&SV=320591,514167&A=Y&Z=115","https://www.google.com/maps/search/?api=1&query=54.516562,-3.22818",https://www.hill-bagging.co.uk/hill-view/?qu=S&rf=2438,320591,514167,54.516562,-3.22818,NY2059114167,,
2439,Base Brown,Lake District - Western Fells,EL02 Gable-grasmoor,Cumberland,"Sim,Hew,N,W,B,Sy,Fel",89 90,OL4S,646,2119,NY225114,NY 22516 11464,38,NY221111,608,cairn,,Abney level,"https://www.streetmap.co.uk/map?X=322515&Y=511465&SV=322515,511465&A=Y&Z=115","https://www.google.com/maps/search/?api=1&query=54.492581,-3.197762",https://www.hill-bagging.co.uk/hill-view/?qu=S&rf=2439,322515,511465,54.492581,-3.197762,NY2251511465,,
2442,Causey Pike,Lake District - North Western Fells,EL02 Gable-grasmoor,Cumberland,"Sim,Hew,N,W,B,Sy,Fel",89 90,OL4S,637,2090,NY218208,NY 21876 20851,40,NY215208,597,small cairn on rock,this summit is highest point and 3-5m higher than next 3 summits W on ridge,Abney level,"https://www.streetmap.co.uk/map?X=321875&Y=520851&SV=321875,520851&A=Y&Z=115","https://www.google.com/maps/search/?api=1&query=54.576817,-3.210133",https://www.hill-bagging.co.uk/hill-view/?qu=S&rf=2442,321875,520851,54.576817,-3.210133,NY2187520851,,
2445,Starling Dodd,Lake District - Western Fells,EL02 Gable-grasmoor,Cumberland,"Sim,Hew,N,W,B,Sy,Fel",89,OL4S,633,2077,NY142157,NY 14210 15747,72,NY146156,561,two adjacent cairns,,,"https://www.streetmap.co.uk/map?X=314208&Y=515748&SV=314208,515748&A=Y&Z=115","https://www.google.com/maps/search/?api=1&query=54.529725,-3.327207",https://www.hill-bagging.co.uk/hill-view/?qu=S&rf=2445,314208,515748,54.529725,-3.327207,NY1420815748,,
2450,Yewbarrow,Lake District - Western Fells,EL02 Gable-grasmoor,Cumberland,"Hu,Sim,Hew,N,sMa,W,B,Sy,Fel",89 90,OL6N,628.7,2063,NY173084,NY 17337 08473,143.9,NY 1746 0951,484.8,cairn,,obvious summit/Leica RX1250,"https://www.streetmap.co.uk/map?X=317336&Y=508474&SV=317336,508474&A=Y&Z=115","https://www.google.com/maps/search/?api=1&query=54.464889,-3.27686",https://www.hill-bagging.co.uk/hill-view/?qu=S&rf=2450,317336,508474,54.464889,-3.27686,NY1733608474,,
2451,Great Borne,Lake District - Western Fells,EL02 Gable-grasmoor,Cumberland,"Hu,Sim,Hew,N,W,B,Sy,Fel",89,OL4S 303,616,2021,NY123163,NY 12394 16358,113,NY131163,503,rock,rock is 22m S of trig point (Wainwright's summit at NY 12391 16381) and 40cm higher than rock by trig point; rock is 12m S of windshelter (Birkett's summit at NY 12395 16373) and 10cm higher than its floor; Wainwright's 'north top' is lower,Abney level,"https://www.streetmap.co.uk/map?X=312392&Y=516359&SV=312392,516359&A=Y&Z=115","https://www.google.com/maps/search/?api=1&query=54.534903,-3.355442",https://www.hill-bagging.co.uk/hill-view/?qu=S&rf=2451,312392,516359,54.534903,-3.355442,NY1239216359,,
2454,Illgill Head,Lake District - Southern Fells,EL03 Scafell-illgill,Cumberland,"Ma,Sim,Dew,W,B,Sy,Fel",89,OL6N,608.8,1997,NY168049,NY 16898 04924,312.2,NY 1829 0555,296.6,rock,higher by 0.5m than rock by windshelter at NY16905 05025; rock 30m SW at NY 16874 04908 is 0.04m lower,Leica NA730/Leica GS15,"https://www.streetmap.co.uk/map?X=316897&Y=504925&SV=316897,504925&A=Y&Z=115","https://www.google.com/maps/search/?api=1&query=54.43293,-3.282634",https://www.hill-bagging.co.uk/hill-view/?qu=S&rf=2454,316897,504925,54.43293,-3.282634,NY1689704925,,
2455,High Seat,Lake District - Central Fells,EL03 Scafell-illgill,Cumberland,"Hu,Sim,Dew,W,B,Sy,Fel",89 90,OL4S,609,1998,NY287180,NY 28709 18045,139.2,NY 2884 1561,469.8,rock 3m W of trig point,rock is 0.3m higher than FB; cairn 85m ENE at NY 28788 18074 might be higher,Abney level,"https://www.streetmap.co.uk/map?X=328708&Y=518046&SV=328708,518046&A=Y&Z=115","https://www.google.com/maps/search/?api=1&query=54.552623,-3.103764",https://www.hill-bagging.co.uk/hill-view/?qu=S&rf=2455,328708,518046,54.552623,-3.103764,NY2870818046,,
2456,Seathwaite Fell,Lake District - Southern Fells,EL03 Scafell-illgill,Cumberland,"W,B,Sy,Fel",89 90,OL4S OL6N,601.1,1972,NY229101,NY 22916 10168,14,NY 2286 1003,587.1,rock 16m SE of cairn,Wainwright summit cairn is 16m NW at NY 22903 10180,Abney level,"https://www.streetmap.co.uk/map?X=322915&Y=510169&SV=322915,510169&A=Y&Z=115","https://www.google.com/maps/search/?api=1&query=54.480998,-3.191249",https://www.hill-bagging.co.uk/hill-view/?qu=S&rf=2456,322915,510169,54.480998,-3.191249,NY2291510169,,
2457,Haystacks (Buttermere),Lake District - Western Fells,EL02 Gable-grasmoor,Cumberland,"5,Dew,W,B,Sy,Fel",89 90,OL4S,597,1959,NY193131,NY 19335 13151,78,NY204124,519,cairn,this is the S cairn and is about 2m higher than N cairn 50m N at NY 19336 13204,Abney level,"https://www.streetmap.co.uk/map?X=319334&Y=513152&SV=319334,513152&A=Y&Z=115","https://www.google.com/maps/search/?api=1&query=54.507243,-3.247321",https://www.hill-bagging.co.uk/hill-view/?qu=S&rf=2457,319334,513152,54.507243,-3.247321,NY1933413152,,
2458,Bleaberry Fell,Lake District - Central Fells,EL03 Scafell-illgill,Cumberland,"5,Dew,W,B,Sy,Fel",89 90,OL4S,590,1936,NY285195,NY 28577 19577,42,NY290187,548,outcrop 10m E of wind shelter,"rock 30m SE of wind shelter is as high, wind shelter is Wainwright summit",Abney level,"https://www.streetmap.co.uk/map?X=328576&Y=519578&SV=328576,519578&A=Y&Z=115","https://www.google.com/maps/search/?api=1&query=54.56637,-3.106177",https://www.hill-bagging.co.uk/hill-view/?qu=S&rf=2458,328576,519578,54.56637,-3.106177,NY2857619578,,
2459,Middle Fell,Lake District - Western Fells,EL02 Gable-grasmoor,Cumberland,"Hu,5,Dew,W,B,Sy,Fel",89,OL6N,582,1909,NY150072,NY 15079 07219,117,NY148080,465,cairn,,Abney level,"https://www.streetmap.co.uk/map?X=315077&Y=507220&SV=315077,507220&A=Y&Z=115","https://www.google.com/maps/search/?api=1&query=54.453249,-3.311327",https://www.hill-bagging.co.uk/hill-view/?qu=S&rf=2459,315077,507220,54.453249,-3.311327,NY1507707220,,
2460,Ard Crags,Lake District - North Western Fells,EL02 Gable-grasmoor,Cumberland,"Hu,5,Dew,W,B,Sy,Fel",89 90,OL4S,581,1906,NY206197,NY 20694 19771,120,NY204199,461,no feature: ground by stone,cairn described by Wainwright is no longer present,Abney level,"https://www.streetmap.co.uk/map?X=320693&Y=519772&SV=320693,519772&A=Y&Z=115","https://www.google.com/maps/search/?api=1&query=54.566938,-3.228123",https://www.hill-bagging.co.uk/hill-view/?qu=S&rf=2460,320693,519772,54.566938,-3.228123,NY2069319772,,
2461,Maiden Moor,Lake District - North Western Fells,EL02 Gable-grasmoor,Cumberland,"W,B,Sy,Fel",89 90,OL4S,575,1886,NY236181,NY 23677 18188,10,NY236177,565,no feature,Wainwright cairn 15m NW at NY 23671 18202 is 5cm lower and ground 55m SE at NY 23700 18140 is 20cm lower,Abney level,"https://www.streetmap.co.uk/map?X=323676&Y=518189&SV=323676,518189&A=Y&Z=115","https://www.google.com/maps/search/?api=1&query=54.553174,-3.181585",https://www.hill-bagging.co.uk/hill-view/?qu=S&rf=2461,323676,518189,54.553174,-3.181585,NY2367618189,,
2462,Blake Fell,Lake District - Western Fells,EL02 Gable-grasmoor,Cumberland,"Ma,5,Dew,W,B,Sy,Fel",89,OL4S 303,572.6,1879,NY110196,NY 11051 19685,163.1,NY 1209 1717,409.5,no feature 3m E of shelter,,Abney level,"https://www.streetmap.co.uk/map?X=311049&Y=519686&SV=311049,519686&A=Y&Z=115","https://www.google.com/maps/search/?api=1&query=54.56456,-3.377198",https://www.hill-bagging.co.uk/hill-view/?qu=S&rf=2462,311049,519686,54.56456,-3.377198,NY1104919686,,
2463,Sergeant's Crag,Lake District - Central Fells,EL03 Scafell-illgill,Cumberland,"5,Dew,W,B,Sy,Fel",89 90,OL4S,571,1873,NY273113,NY 27393 11378,49,NY274109,522,rock 2m from cairn,,obvious summit,"https://www.streetmap.co.uk/map?X=327392&Y=511379&SV=327392,511379&A=Y&Z=115","https://www.google.com/maps/search/?api=1&query=54.492531,-3.122463",https://www.hill-bagging.co.uk/hill-view/?qu=S&rf=2463,327392,511379,54.492531,-3.122463,NY2739211379,,
2464,Outerside,Lake District - North Western Fells,EL02 Gable-grasmoor,Cumberland,"5,Dew,W,B,Sy,Fel",89 90,OL4S,568,1864,NY211214,NY 21109 21459,74,NY209212,494,rocks by small pile of stones,30cm higher than small rock 15m NE,Abney level,"https://www.streetmap.co.uk/map?X=321108&Y=521460&SV=321108,521460&A=Y&Z=115","https://www.google.com/maps/search/?api=1&query=54.582169,-3.222159",https://www.hill-bagging.co.uk/hill-view/?qu=S&rf=2464,321108,521460,54.582169,-3.222159,NY2110821460,,
2465,Knott Rigg,Lake District - North Western Fells,EL02 Gable-grasmoor,Cumberland,"5,Dew,W,B,Sy,Fel",89 90,OL4S,556,1824,NY197188,NY 19741 18871,53,NY200193,503,ground 1m W of small pile of stones,,Abney level,"https://www.streetmap.co.uk/map?X=319740&Y=518872&SV=319740,518872&A=Y&Z=115","https://www.google.com/maps/search/?api=1&query=54.558701,-3.242613",https://www.hill-bagging.co.uk/hill-view/?qu=S&rf=2465,319740,518872,54.558701,-3.242613,NY1974018872,,
2466,Steel Fell (Dead Pike),Lake District - Central Fells,EL03 Scafell-illgill,Cumberland/Westmorland and Furness,"5,Dew,W,B,Sy,Fel",90,OL5S,553,1814,NY319111,NY 31943 11154,83,NY309112,470,cairn,cairn 80m E at NY 32023 11167 is 2m lower,Abney level,"https://www.streetmap.co.uk/map?X=331942&Y=511155&SV=331942,511155&A=Y&Z=115","https://www.google.com/maps/search/?api=1&query=54.49115,-3.052179",https://www.hill-bagging.co.uk/hill-view/?qu=S&rf=2466,331942,511155,54.49115,-3.052179,NY3194211155,,
2467,Rosthwaite Fell,Lake District - Southern Fells,EL03 Scafell-illgill,Cumberland,"5,Dew,W,B,Sy,Fel",89 90,OL4S,551,1808,NY258124,NY 25831 12479,44,NY257121,507,cairn,,obvious summit,"https://www.streetmap.co.uk/map?X=325830&Y=512480&SV=325830,512480&A=Y&Z=115","https://www.google.com/maps/search/?api=1&query=54.502198,-3.14685",https://www.hill-bagging.co.uk/hill-view/?qu=S&rf=2467,325830,512480,54.502198,-3.14685,NY2583012480,,
2468,Tarn Crag (Easedale),Lake District - Central Fells,EL03 Scafell-illgill,Westmorland and Furness,"W,B,Sy,Fel",90,OL4S OL5S OL6N OL7N,549,1801,NY303093,NY 30371 09302,4,NY303093,545,cairn on rocky outcrop,cairn is Wainwright and Birkett; it is c 3m lower than highest point of fell 100m WNW at NY 30277 09335,Abney level,"https://www.streetmap.co.uk/map?X=330370&Y=509303&SV=330370,509303&A=Y&Z=115","https://www.google.com/maps/search/?api=1&query=54.474295,-3.076006",https://www.hill-bagging.co.uk/hill-view/?qu=S&rf=2468,330370,509303,54.474295,-3.076006,NY3037009303,,
2469,Hard Knott,Lake District - Southern Fells,EL03 Scafell-illgill,Cumberland,"Ma,5,Dew,W,B,Sy,Fel",89 90,OL6N,549.6,1803,NY231023,NY 23188 02376,156.2,NY 2370 0397,393.5,rock 8m NW of cairn,top 200m SW is lower,Abney level,"https://www.streetmap.co.uk/map?X=323187&Y=502377&SV=323187,502377&A=Y&Z=115","https://www.google.com/maps/search/?api=1&query=54.411026,-3.185029",https://www.hill-bagging.co.uk/hill-view/?qu=S&rf=2469,323187,502377,54.411026,-3.185029,NY2318702377,,
2470,Blea Rigg,Lake District - Central Fells,EL03 Scafell-illgill,Westmorland and Furness,"W,B,Sy,Fel",90,OL6N OL7N,541.5,1777,NY301078,NY 30166 07834,5.6,NY 3014 0784,535.9,cairn,Wainwright summit; rocky knoll 80m WSW at NY 30079 07807 is 3.6m higher,Abney level,"https://www.streetmap.co.uk/map?X=330165&Y=507835&SV=330165,507835&A=Y&Z=115","https://www.google.com/maps/search/?api=1&query=54.461076,-3.078822",https://www.hill-bagging.co.uk/hill-view/?qu=S&rf=2470,330165,507835,54.461076,-3.078822,NY3016507835,,
2471,Lank Rigg,Lake District - Western Fells,EL02 Gable-grasmoor,Cumberland,"Hu,5,Dew,W,B,Sy,Fel",89,OL4S 303,541,1775,NY091119,NY 09165 11959,110,NY 0955 1230,431,ground within 1m of trig point,cairn 3m S is lower; cairn 200m SW at NY 09024 11817 is several metres lower,Abney level,"https://www.streetmap.co.uk/map?X=309163&Y=511960&SV=309163,511960&A=Y&Z=115","https://www.google.com/maps/search/?api=1&query=54.494811,-3.403973",https://www.hill-bagging.co.uk/hill-view/?qu=S&rf=2471,309163,511960,54.494811,-3.403973,NY0916311960,,
2472,Calf Crag,Lake District - Central Fells,EL03 Scafell-illgill,Westmorland and Furness,"5,Dew,W,B,Sy,Fel",90,OL4S OL5S OL6N OL7N,537,1762,NY301104,NY 30162 10411,50,NY295102,487,cairn,,Abney level,"https://www.streetmap.co.uk/map?X=330161&Y=510412&SV=330161,510412&A=Y&Z=115","https://www.google.com/maps/search/?api=1&query=54.484231,-3.079493",https://www.hill-bagging.co.uk/hill-view/?qu=S&rf=2472,330161,510412,54.484231,-3.079493,NY3016110412,,
2473,Whin Rigg (Wasdale),Lake District - Southern Fells,EL03 Scafell-illgill,Cumberland,"5,Dew,W,B,Sy,Fel",89,OL6N,537,1762,NY151035,NY 15102 03536,59,NY157040,478,Wainwright/Birkett cairn,rock 3m E of cairn is highest point of fell; cairn 100m SSE on S top at NY 15138 03442 is about 1m lower; rock 100m SSE on S top at NY 15148 03435 is about 0.7m lower,Abney level,"https://www.streetmap.co.uk/map?X=315100&Y=503537&SV=315100,503537&A=Y&Z=115","https://www.google.com/maps/search/?api=1&query=54.420162,-3.309916",https://www.hill-bagging.co.uk/hill-view/?qu=S&rf=2473,315100,503537,54.420162,-3.309916,NY1510003537,,
2474,Gavel Fell,Lake District - Western Fells,EL02 Gable-grasmoor,Cumberland,"5,Dew,W,B,Sy,Fel",89,OL4S 303,524.3,1720,NY116185,NY 11657 18499,73.7,NY 1152 1897,450.7,no feature,Wainwright cairn at NY 11698 18384 is 0.2m lower,,"https://www.streetmap.co.uk/map?X=311655&Y=518500&SV=311655,518500&A=Y&Z=115","https://www.google.com/maps/search/?api=1&query=54.554011,-3.367472",https://www.hill-bagging.co.uk/hill-view/?qu=S&rf=2474,311655,518500,54.554011,-3.367472,NY1165518500,,
2475,Eagle Crag,Lake District - Central Fells,EL03 Scafell-illgill,Cumberland,"s5,W,B,Sy,Fel",89 90,OL4S,522.8,1715,NY275121,NY 27533 12102,29.2,NY 2762 1179,493.6,a few stones on sloping rock slab,Ground 50m SSE at NY 27558 12054 is 0.7m lower,obvious summit,"https://www.streetmap.co.uk/map?X=327532&Y=512103&SV=327532,512103&A=Y&Z=115","https://www.google.com/maps/search/?api=1&query=54.499056,-3.12048",https://www.hill-bagging.co.uk/hill-view/?qu=S&rf=2475,327532,512103,54.499056,-3.12048,NY2753212103,,
2476,Crag Fell,Lake District - Western Fells,EL02 Gable-grasmoor,Cumberland,"Hu,5,Dew,W,B,Sy,Fel",89,OL4S 303,523,1716,NY097143,NY 09725 14386,114,NY101136,409,cairn,SE top 100m away at NY 09815 14330 is lower,Abney level,"https://www.streetmap.co.uk/map?X=309723&Y=514387&SV=309723,514387&A=Y&Z=115","https://www.google.com/maps/search/?api=1&query=54.516717,-3.396073",https://www.hill-bagging.co.uk/hill-view/?qu=S&rf=2476,309723,514387,54.516717,-3.396073,NY0972314387,,
2477,Whinlatter (Brown How),Lake District - North Western Fells,EL02 Gable-grasmoor,Cumberland,"W,B,Sy,Fel",89 90,OL4S,517,1696,NY191251,NY 19114 25132,16,NY193249,501,shelter,highest point is ground 6m E of shelter at NY 19119 25135,Abney level,"https://www.streetmap.co.uk/map?X=319113&Y=525133&SV=319113,525133&A=Y&Z=115","https://www.google.com/maps/search/?api=1&query=54.614855,-3.254033",https://www.hill-bagging.co.uk/hill-view/?qu=S&rf=2477,319113,525133,54.614855,-3.254033,NY1911325133,,
2478,High Tove,Lake District - Central Fells,EL03 Scafell-illgill,Cumberland,"W,B,Sy,Fel",89 90,OL4S,515,1690,NY289165,NY 28915 16510,16,NY288168,499,ground by cairn SE of fence,ground 10m N of cairn is as high,Abney level,"https://www.streetmap.co.uk/map?X=328914&Y=516511&SV=328914,516511&A=Y&Z=115","https://www.google.com/maps/search/?api=1&query=54.53886,-3.100209",https://www.hill-bagging.co.uk/hill-view/?qu=S&rf=2478,328914,516511,54.53886,-3.100209,NY2891416511,,
2479,Mellbreak (Mellbreak South Top),Lake District - Western Fells,EL02 Gable-grasmoor,Cumberland,"Ma,5,Dew,W,B,Sy,Fel",89,OL4S,511.1,1677,NY148186,NY 14843 18613,259,NY 1425 1737,252.1,flat rock,cairn described by Wainwright no longer present but may have been on small rocky outcrop 55m S at NY 14839 18558 which is 1.3m lower; ground 10m E is of similar height,Abney level,"https://www.streetmap.co.uk/map?X=314841&Y=518614&SV=314841,518614&A=Y&Z=115","https://www.google.com/maps/search/?api=1&query=54.555581,-3.318258",https://www.hill-bagging.co.uk/hill-view/?qu=S&rf=2479,314841,518614,54.555581,-3.318258,NY1484118614,,
2480,Broom Fell,Lake District - North Western Fells,EL02 Gable-grasmoor,Cumberland,"s5,W,B,Sy,Fel",89 90,OL4S,510.2,1674,NY195270,NY 19544 27051,28.9,NY 2000 2691,481.4,no feature: heather,Wainwright summit cairn is 170m NW at NY 19444 27191 and is 0.9m lower,Abney level,"https://www.streetmap.co.uk/map?X=319543&Y=527052&SV=319543,527052&A=Y&Z=115","https://www.google.com/maps/search/?api=1&query=54.632165,-3.247904",https://www.hill-bagging.co.uk/hill-view/?qu=S&rf=2480,319543,527052,54.632165,-3.247904,NY1954327052,,
2481,Hen Comb,Lake District - Western Fells,EL02 Gable-grasmoor,Cumberland,"Hu,5,Dew,W,B,Sy,Fel",89,OL4S 303,506.2,1661,NY132181,NY 13216 18117,138.8,NY 1282 1758,367.4,cairn,,obvious summit,"https://www.streetmap.co.uk/map?X=313214&Y=518118&SV=313214,518118&A=Y&Z=115","https://www.google.com/maps/search/?api=1&query=54.550848,-3.343261",https://www.hill-bagging.co.uk/hill-view/?qu=S&rf=2481,313214,518118,54.550848,-3.343261,NY1321418118,,
2482,Grike,Lake District - Western Fells,EL02 Gable-grasmoor,Cumberland,"4,W,B,Sy,Fel",89,OL4S 303,488,1601,NY084140,NY 08501 14082,37,NY092140,451,large windshelter,cairn 10m W at NY 08491 14075 is lower; ground 100m E is lower,Abney level,"https://www.streetmap.co.uk/map?X=308499&Y=514083&SV=308499,514083&A=Y&Z=115","https://www.google.com/maps/search/?api=1&query=54.513766,-3.41488",https://www.hill-bagging.co.uk/hill-view/?qu=S&rf=2482,308499,514083,54.513766,-3.41488,NY0849914083,,
2483,Armboth Fell,Lake District - Central Fells,EL03 Scafell-illgill,Cumberland,W,89 90,OL4S,475,1558,NY295157,NY 29583 15739,7.7,NY 2965 1569,467.3,rocky mound,,obvious summit,"https://www.streetmap.co.uk/map?X=329582&Y=515740&SV=329582,515740&A=Y&Z=115","https://www.google.com/maps/search/?api=1&query=54.532026,-3.089702",https://www.hill-bagging.co.uk/hill-view/?qu=S&rf=2483,329582,515740,54.532026,-3.089702,NY2958215740,,
2484,Burnbank Fell,Lake District - Western Fells,EL02 Gable-grasmoor,Cumberland,"W,B,Sy",89,OL4S 303,475,1558,NY110209,NY 11002 20953,22,NY 1111 2065,453,metal post at fence corner,metal fence post is W & B; cairn 5m W is as high,Abney level,"https://www.streetmap.co.uk/map?X=311000&Y=520954&SV=311000,520954&A=Y&Z=115","https://www.google.com/maps/search/?api=1&query=54.575943,-3.37834",https://www.hill-bagging.co.uk/hill-view/?qu=S&rf=2484,311000,520954,54.575943,-3.37834,NY1100020954,,
2485,Lingmoor Fell (Brown How),Lake District - Southern Fells,EL03 Scafell-illgill,Westmorland and Furness,"Ma,4,W,B,Sy,Fel",90,OL6N OL7N,469.9,1542,NY302046,NY 30273 04604,247.8,NY 2890 0510,222.1,rock 2m N of cairn,,obvious summit,"https://www.streetmap.co.uk/map?X=330272&Y=504605&SV=330272,504605&A=Y&Z=115","https://www.google.com/maps/search/?api=1&query=54.432067,-3.07641",https://www.hill-bagging.co.uk/hill-view/?qu=S&rf=2485,330272,504605,54.432067,-3.07641,NY3027204605,,
2486,Barf,Lake District - North Western Fells,EL02 Gable-grasmoor,Cumberland,"4,W,B,Sy,Fel",89 90,OL4S,469,1539,NY214267,NY 21464 26739,38,NY212268,431,shattered cairn on rock,,obvious summit,"https://www.streetmap.co.uk/map?X=321463&Y=526740&SV=321463,526740&A=Y&Z=115","https://www.google.com/maps/search/?api=1&query=54.629665,-3.218084",https://www.hill-bagging.co.uk/hill-view/?qu=S&rf=2486,321463,526740,54.629665,-3.218084,NY2146326740,,
2487,Raven Crag,Lake District - Central Fells,EL03 Scafell-illgill,Cumberland,"4,W,B,Sy,Fel",90,OL4S OL5S,461,1512,NY303187,NY 30340 18755,44,NY300182,417,cairn on rock,,Abney level,"https://www.streetmap.co.uk/map?X=330339&Y=518756&SV=330339,518756&A=Y&Z=115","https://www.google.com/maps/search/?api=1&query=54.559231,-3.07872",https://www.hill-bagging.co.uk/hill-view/?qu=S&rf=2487,330339,518756,54.559231,-3.07872,NY3033918756,,
2488,Barrow,Lake District - North Western Fells,EL02 Gable-grasmoor,Cumberland,"4,W,B,Sy,Fel",89 90,OL4S,455,1493,NY227218,NY 22708 21820,70,NY222216,385,no feature 5m NNE of small cairn,,Abney level,"https://www.streetmap.co.uk/map?X=322707&Y=521821&SV=322707,521821&A=Y&Z=115","https://www.google.com/maps/search/?api=1&query=54.58566,-3.19752",https://www.hill-bagging.co.uk/hill-view/?qu=S&rf=2488,322707,521821,54.58566,-3.19752,NY2270721821,,
2489,Graystones,Lake District - North Western Fells,EL02 Gable-grasmoor,Cumberland,W,89 90,OL4S,450.4,1478,NY176266,NY 17616 26621,9.4,NY1768 2664,441,small cairn on rocky outcrop,,,"https://www.streetmap.co.uk/map?X=317615&Y=526622&SV=317615,526622&A=Y&Z=115","https://www.google.com/maps/search/?api=1&query=54.627991,-3.277642",https://www.hill-bagging.co.uk/hill-view/?qu=S&rf=2489,317615,526622,54.627991,-3.277642,NY1761526622,,
2490,Catbells,Lake District - North Western Fells,EL02 Gable-grasmoor,Cumberland,"4,W,B,Sy,Fel",89 90,OL4S,451,1480,NY244198,NY 24409 19861,87,NY244191,364,rock,tiny flat cairn no longer exists,obvious summit,"https://www.streetmap.co.uk/map?X=324408&Y=519862&SV=324408,519862&A=Y&Z=115","https://www.google.com/maps/search/?api=1&query=54.568316,-3.1707",https://www.hill-bagging.co.uk/hill-view/?qu=S&rf=2490,324408,519862,54.568316,-3.1707,NY2440819862,,
2491,Great Crag (Stonethwaite),Lake District - Central Fells,EL03 Scafell-illgill,Cumberland,"4,W,B,Sy,Fel",89 90,OL4S,449,1473,NY270146,NY 27001 14685,34,NY272146,415,cairn,this is S top (Wainwright summit); top (two cairns) 80m N (Birkett) at NY 26998 14765 is 50cm lower,Abney level,"https://www.streetmap.co.uk/map?X=327000&Y=514686&SV=327000,514686&A=Y&Z=115","https://www.google.com/maps/search/?api=1&query=54.522189,-3.129333",https://www.hill-bagging.co.uk/hill-view/?qu=S&rf=2491,327000,514686,54.522189,-3.129333,NY2700014686,,
2493,Low Fell,Lake District - Western Fells,EL02 Gable-grasmoor,Cumberland,"Ma,4,W,B,Sy,Fel",89,OL4S 303,422.5,1386,NY137226,NY 13732 22616,266.6,NY 1058 2375,155.9,ground by small cairn,5.4m higher than S top (hill 3780 Loweswater Fell),Abney level,"https://www.streetmap.co.uk/map?X=313731&Y=522617&SV=313731,522617&A=Y&Z=115","https://www.google.com/maps/search/?api=1&query=54.591358,-3.336608",https://www.hill-bagging.co.uk/hill-view/?qu=S&rf=2493,313731,522617,54.591358,-3.336608,NY1373122617,,
2494,Gibson Knott,Lake District - Central Fells,EL03 Scafell-illgill,Westmorland and Furness,"W,B,Sy,Fel",90,OL5S OL7N,420.1,1378,NY316100,NY 31690 10036,8.8,NY 3163 1004,411.3,cairn on rocky outcrop,Fellranger summit is the cairn 200m SE at NY 31853 09923 and is 2m higher,Abney level,"https://www.streetmap.co.uk/map?X=331689&Y=510037&SV=331689,510037&A=Y&Z=115","https://www.google.com/maps/search/?api=1&query=54.48107,-3.055825",https://www.hill-bagging.co.uk/hill-view/?qu=S&rf=2494,331689,510037,54.48107,-3.055825,NY3168910037,,
2495,Fellbarrow - Mosser Fell,Lake District - Western Fells,EL02 Gable-grasmoor,Cumberland,"4,W,B,Sy,Fel",89,OL4S 303,416,1365,NY132242,NY 13240 24235,51.6,NY 1329 2394,364.4,no feature: ground 20m SE of trig point,trig point (NY 13222 24247) 5m E of cairn is Wainwright and Birkett and is 15cm lower,Abney level,"https://www.streetmap.co.uk/map?X=313239&Y=524236&SV=313239,524236&A=Y&Z=115","https://www.google.com/maps/search/?api=1&query=54.60582,-3.344699",https://www.hill-bagging.co.uk/hill-view/?qu=S&rf=2495,313239,524236,54.60582,-3.344699,NY1323924236,,
2496,Grange Fell (Brund Fell),Lake District - Central Fells,EL03 Scafell-illgill,Cumberland,"4,W,B,Sy,Fel",89 90,OL4S,417.2,1369,NY264162,NY 26468 16276,42.2,NY 2677 1707,375,cairn on rock tor,Wainwright's rock tor 70m SW at NY 26412 16240 is 1m - 2m lower,Abney level,"https://www.streetmap.co.uk/map?X=326467&Y=516277&SV=326467,516277&A=Y&Z=115","https://www.google.com/maps/search/?api=1&query=54.536408,-3.137963",https://www.hill-bagging.co.uk/hill-view/?qu=S&rf=2496,326467,516277,54.536408,-3.137963,NY2646716277,,
2497,Buckbarrow,Lake District - Western Fells,EL02 Gable-grasmoor,Cumberland,"W,B,Sy,Fel",89,OL6N 303,423,1388,NY135061,NY 13570 06125,4,NY135061,419,cairn,,obvious summit,"https://www.streetmap.co.uk/map?X=313568&Y=506126&SV=313568,506126&A=Y&Z=115","https://www.google.com/maps/search/?api=1&query=54.443165,-3.334275",https://www.hill-bagging.co.uk/hill-view/?qu=S&rf=2497,313568,506126,54.443165,-3.334275,NY1356806126,,
2498,Helm Crag,Lake District - Central Fells,EL03 Scafell-illgill,Westmorland and Furness,"4,W,B,Sy,Fel",90,OL5S OL7N,405,1329,NY326093,NY 32652 09349,72,NY324095,333,rock tor known as 'Howitzer',,obvious summit,"https://www.streetmap.co.uk/map?X=332651&Y=509350&SV=332651,509350&A=Y&Z=115","https://www.google.com/maps/search/?api=1&query=54.475026,-3.040823",https://www.hill-bagging.co.uk/hill-view/?qu=S&rf=2498,332651,509350,54.475026,-3.040823,NY3265109350,,
2499,Silver How,Lake District - Central Fells,EL03 Scafell-illgill,Westmorland and Furness,"W,B,Sy,Fel",90,OL7N,393.8,1292,NY324066,NY 32478 06643,29.7,NY 3213 0662,364.1,cairn,ground 5m NW is of similar height,Abney level,"https://www.streetmap.co.uk/map?X=332477&Y=506644&SV=332477,506644&A=Y&Z=115","https://www.google.com/maps/search/?api=1&query=54.450687,-3.04289",https://www.hill-bagging.co.uk/hill-view/?qu=S&rf=2499,332477,506644,54.450687,-3.04289,NY3247706644,,
2500,Walla Crag,Lake District - Central Fells,EL03 Scafell-illgill,Cumberland,"W,B,Sy,Fel",89 90,OL4S,379,1243,NY276212,NY 27686 21287,27,NY279209,352,rock by cairn,,,"https://www.streetmap.co.uk/map?X=327685&Y=521288&SV=327685,521288&A=Y&Z=115","https://www.google.com/maps/search/?api=1&query=54.581608,-3.120377",https://www.hill-bagging.co.uk/hill-view/?qu=S&rf=2500,327685,521288,54.581608,-3.120377,NY2768521288,,
2501,Ling Fell,Lake District - North Western Fells,EL02 Gable-grasmoor,Cumberland,"3,sHu,W,B,Sy,Fel",89 90,OL4S,374,1227,NY179285,NY 17994 28535,98,NY184282,276,no feature,"ground is 0.7m higher than trig point 70m NNW at NY17961 28593 (Wainwright,Birkett); cairn 50m N at NY 17982 28582 is 0.5m lower",Abney level,"https://www.streetmap.co.uk/map?X=317993&Y=528536&SV=317993,528536&A=Y&Z=115","https://www.google.com/maps/search/?api=1&query=54.645249,-3.272325",https://www.hill-bagging.co.uk/hill-view/?qu=S&rf=2501,317993,528536,54.645249,-3.272325,NY1799328536,,
2502,Rannerdale Knotts,Lake District - North Western Fells,EL02 Gable-grasmoor,Cumberland,"3,W,B,Sy,Fel",89,OL4S,355,1165,NY167182,NY 16727 18251,69,NY176178,286,cairn,rock 2m S of cairn is actually the highest point,Abney level,"https://www.streetmap.co.uk/map?X=316726&Y=518252&SV=316726,518252&A=Y&Z=115","https://www.google.com/maps/search/?api=1&query=54.552643,-3.289032",https://www.hill-bagging.co.uk/hill-view/?qu=S&rf=2502,316726,518252,54.552643,-3.289032,NY1672618252,,
2503,Sale Fell,Lake District - North Western Fells,EL02 Gable-grasmoor,Cumberland,"Hu,3,W,B,Sy,Fel",89 90,OL4S,359,1178,NY194296,NY 19445 29664,139,NY205281,220,outcrop,there is no longer any evidence of the cairn described by Wainwright and Birkett,Abney level,"https://www.streetmap.co.uk/map?X=319444&Y=529665&SV=319444,529665&A=Y&Z=115","https://www.google.com/maps/search/?api=1&query=54.655627,-3.250157",https://www.hill-bagging.co.uk/hill-view/?qu=S&rf=2503,319444,529665,54.655627,-3.250157,NY1944429665,,
2507,Loughrigg Fell,Lake District - Central Fells,EL03 Scafell-illgill,Westmorland and Furness,"Ma,3,W,B,Sy,Fel",90,OL7N,335.1,1099,NY346051,NY 34696 05138,174.1,NY 3403 0552,161,outcrop 3m SW of trig point,,Abney level,"https://www.streetmap.co.uk/map?X=334695&Y=505139&SV=334695,505139&A=Y&Z=115","https://www.google.com/maps/search/?api=1&query=54.437454,-3.008355",https://www.hill-bagging.co.uk/hill-view/?qu=S&rf=2507,334695,505139,54.437454,-3.008355,NY3469505139,,
2508,Black Fell,Lake District - Southern Fells,EL04 Coniston-claife,Westmorland and Furness,"Hu,3,W,B,Sy,Fel",90,OL7N,323,1060,NY340015,NY 34022 01592,126,SD331986,197,rock 1m W trig point,rock 55m N of trig point (NY 34041 01641) is as high,Abney level,"https://www.streetmap.co.uk/map?X=334021&Y=501593&SV=334021,501593&A=Y&Z=115","https://www.google.com/maps/search/?api=1&query=54.405503,-3.017955",https://www.hill-bagging.co.uk/hill-view/?qu=S&rf=2508,334021,501593,54.405503,-3.017955,NY3402101593,,
2510,Castle Crag,Lake District - North Western Fells,EL02 Gable-grasmoor,Cumberland,"2,W,Sy,Fel",89 90,OL4S,290,951,NY249159,NY 24932 15942,76,NY246156,214,large shelter cairn on rock,,obvious summit,"https://www.streetmap.co.uk/map?X=324931&Y=515943&SV=324931,515943&A=Y&Z=115","https://www.google.com/maps/search/?api=1&query=54.533181,-3.161612",https://www.hill-bagging.co.uk/hill-view/?qu=S&rf=2510,324931,515943,54.533181,-3.161612,NY2493115943,,
2515,Helvellyn,Lake District - Eastern Fells,EL05 Helvellyn-mell,Cumberland/Westmorland and Furness,"Ma,F,Sim,Hew,N,W,B,HHB,Sy,Fel,CoH,CoA,CoU",90,OL5S,949.8,3116,NY342151,NY 34246 15110,713.4,NY 3270 1172,236.4,cairn near stone shelter,trig point is slightly lower,,"https://www.streetmap.co.uk/map?X=334245&Y=515111&SV=334245,515111&A=Y&Z=115","https://www.google.com/maps/search/?api=1&query=54.527001,-3.017514",https://www.hill-bagging.co.uk/hill-view/?qu=S&rf=2515,334245,515111,54.527001,-3.017514,NY3424515111,,
2517,Nethermost Pike,Lake District - Eastern Fells,EL05 Helvellyn-mell,Westmorland and Furness,"N,W,B,HHB,sSim,Sy,Fel",90,OL5S,891.3,2924,NY343142,NY 34367 14217,29.1,NY 3430 1445,862.2,cairn,"Wainwright is small cairn at NY 34406 14157, cairn 20m NW is lower",,"https://www.streetmap.co.uk/map?X=334366&Y=514218&SV=334366,514218&A=Y&Z=115","https://www.google.com/maps/search/?api=1&query=54.518993,-3.015446",https://www.hill-bagging.co.uk/hill-view/?qu=S&rf=2517,334366,514218,54.518993,-3.015446,NY3436614218,,
2518,Catstye Cam,Lake District - Eastern Fells,EL05 Helvellyn-mell,Westmorland and Furness,"Sim,Hew,N,W,B,HHB,Sy,Fel",90,OL5S,889.6,2919,NY348158,NY 34811 15822,62.4,NY 3456 1557,827.2,cairn,,,"https://www.streetmap.co.uk/map?X=334810&Y=515823&SV=334810,515823&A=Y&Z=115","https://www.google.com/maps/search/?api=1&query=54.533472,-3.008944",https://www.hill-bagging.co.uk/hill-view/?qu=S&rf=2518,334810,515823,54.533472,-3.008944,NY3481015823,,
2520,Raise,Lake District - Eastern Fells,EL05 Helvellyn-mell,Cumberland/Westmorland and Furness,"Sim,Hew,N,W,B,HHB,Sy,Fel,sHu",90,OL5S,882.7,2896,NY342174,NY 34282 17415,91.6,NY 3385 1619,791.1,cairn on rock,,,"https://www.streetmap.co.uk/map?X=334281&Y=517416&SV=334281,517416&A=Y&Z=115","https://www.google.com/maps/search/?api=1&query=54.547718,-3.017473",https://www.hill-bagging.co.uk/hill-view/?qu=S&rf=2520,334281,517416,54.547718,-3.017473,NY3428117416,,
2521,Fairfield,Lake District - Eastern Fells,EL05 Helvellyn-mell,Westmorland and Furness,"Ma,Sim,Hew,N,HHB,W,B,Sy,Fel",90,OL5S,873.3,2865,NY358117,NY 35873 11754,300.3,NY 3441 1207,573,embedded outcrop within cairn/shelter,rock 20m SW at NY 35861 11736 is 0.3m lower,Leica RX1250,"https://www.streetmap.co.uk/map?X=335872&Y=511755&SV=335872,511755&A=Y&Z=115","https://www.google.com/maps/search/?api=1&query=54.497054,-2.991648",https://www.hill-bagging.co.uk/hill-view/?qu=S&rf=2521,335872,511755,54.497054,-2.991648,NY3587211755,,
2523,White Side,Lake District - Eastern Fells,EL05 Helvellyn-mell,Cumberland/Westmorland and Furness,"Sim,Hew,N,W,B,HHB,Sy,Fel",90,OL5S,863.2,2832,NY337166,NY 33780 16664,43.1,NY 3395 1688,820.1,windshelter,,,"https://www.streetmap.co.uk/map?X=333779&Y=516665&SV=333779,516665&A=Y&Z=115","https://www.google.com/maps/search/?api=1&query=54.540904,-3.025063",https://www.hill-bagging.co.uk/hill-view/?qu=S&rf=2523,333779,516665,54.540904,-3.025063,NY3377916665,,
2524,Dollywaggon Pike,Lake District - Eastern Fells,EL05 Helvellyn-mell,Westmorland and Furness,"Sim,Hew,N,W,B,HHB,Sy,Fel",90,OL5S,858.5,2817,NY346130,NY 34627 13067,50.3,NY 3436 1332,808.2,cairn,rock 7m W may be as high; cairn 30m SW at NY 34601 13046 is lower,,"https://www.streetmap.co.uk/map?X=334626&Y=513068&SV=334626,513068&A=Y&Z=115","https://www.google.com/maps/search/?api=1&query=54.508693,-3.011175",https://www.hill-bagging.co.uk/hill-view/?qu=S&rf=2524,334626,513068,54.508693,-3.011175,NY3462613068,,
2525,Great Dodd,Lake District - Eastern Fells,EL05 Helvellyn-mell,Cumberland,"Hu,Sim,Hew,N,HHB,W,B,Sy,Fel",90,OL5S,857,2812,NY342205,NY 34204 20529,109,NY342181,748,no feature: ground 30m SSE of cairn,ground is 20cm higher than cairn at NY 34195 20557 and equal in height with ground 30m SE at NY 34228 20506; Wainwright shelter is at NY 34272 20452,Abney level,"https://www.streetmap.co.uk/map?X=334203&Y=520530&SV=334203,520530&A=Y&Z=115","https://www.google.com/maps/search/?api=1&query=54.575689,-3.019377",https://www.hill-bagging.co.uk/hill-view/?qu=S&rf=2525,334203,520530,54.575689,-3.019377,NY3420320530,,
2526,Stybarrow Dodd,Lake District - Eastern Fells,EL05 Helvellyn-mell,Cumberland/Westmorland and Furness,"Sim,Hew,N,W,B,HHB,Sy,Fel",90,OL5S,843.7,2768,NY343189,NY 34308 18907,68.9,NY 3406 1933,774.8,no feature: ground 15m SE of cairn,ground is 20cm higher than cairn (NY 34296 18923),Abney level,"https://www.streetmap.co.uk/map?X=334307&Y=518908&SV=334307,518908&A=Y&Z=115","https://www.google.com/maps/search/?api=1&query=54.561128,-3.017405",https://www.hill-bagging.co.uk/hill-view/?qu=S&rf=2526,334307,518908,54.561128,-3.017405,NY3430718908,,
2527,St Sunday Crag,Lake District - Eastern Fells,EL05 Helvellyn-mell,Westmorland and Furness,"Ma,Sim,Hew,N,HHB,W,B,Sy,Fel",90,OL5S,841.2,2760,NY369133,NY 36920 13396,160.5,NY 3603 1252,680.7,rock 2m N of cairn,,Leica RX1250,"https://www.streetmap.co.uk/map?X=336919&Y=513397&SV=336919,513397&A=Y&Z=115","https://www.google.com/maps/search/?api=1&query=54.51194,-2.975836",https://www.hill-bagging.co.uk/hill-view/?qu=S&rf=2527,336919,513397,54.51194,-2.975836,NY3691913397,,
2528,High Street,Lake District - Far Eastern Fells,EL06 Highstreet-arnside,Westmorland and Furness,"Ma,Sim,Hew,N,W,B,Sy,Fel",90,OL5S,828.5,2718,NY441111,NY 44141 11116,373.8,NY 4014 0825,454.7,no feature: 90m NE of trig point at NY 44077 11049,all natural ground in the vicinity of the trig point is lower,,"https://www.streetmap.co.uk/map?X=344140&Y=511117&SV=344140,511117&A=Y&Z=115","https://www.google.com/maps/search/?api=1&query=54.492301,-2.863884",https://www.hill-bagging.co.uk/hill-view/?qu=S&rf=2528,344140,511117,54.492301,-2.863884,NY4414011117,,
2529,Hart Crag,Lake District - Eastern Fells,EL05 Helvellyn-mell,Westmorland and Furness,"Sim,Hew,N,W,B,Sy,Fel",90,OL5S,823.1,2700,NY368112,NY 36818 11262,51.2,NY 3664 1141,771.9,outcrop,rock near Wainwright cairn 100m SE at NY 36891 11207 is as high,Leica RX1250,"https://www.streetmap.co.uk/map?X=336817&Y=511263&SV=336817,511263&A=Y&Z=115","https://www.google.com/maps/search/?api=1&query=54.492752,-2.976954",https://www.hill-bagging.co.uk/hill-view/?qu=S&rf=2529,336817,511263,54.492752,-2.976954,NY3681711263,,
2530,High Raise (High Street),Lake District - Far Eastern Fells,EL06 Highstreet-arnside,Westmorland and Furness,"Sim,Hew,N,W,B,Sy,Fel",90,OL5S,803.6,2636,NY448134,NY 44824 13452,89.9,NY 4398 1214,713.7,cairn,,obvious summit,"https://www.streetmap.co.uk/map?X=344823&Y=513453&SV=344823,513453&A=Y&Z=115","https://www.google.com/maps/search/?api=1&query=54.513367,-2.853779",https://www.hill-bagging.co.uk/hill-view/?qu=S&rf=2530,344823,513453,54.513367,-2.853779,NY4482313453,,
2532,Rampsgill Head,Lake District - Far Eastern Fells,EL06 Highstreet-arnside,Westmorland and Furness,"Sim,Hew,N,W,B,Sy,Fel",90,OL5S,792.4,2600,NY443128,NY 44333 12871,41.1,NY 4458 1308,751.3,rock,Wainwright's cairn is 145m SW at NY 44227 12772 and is 1m lower; rock 80m SW at NY 44293 12800 & ground 90m SW at NY 44276 12801 are both of similar height,Abney level,"https://www.streetmap.co.uk/map?X=344332&Y=512872&SV=344332,512872&A=Y&Z=115","https://www.google.com/maps/search/?api=1&query=54.508092,-2.861252",https://www.hill-bagging.co.uk/hill-view/?qu=S&rf=2532,344332,512872,54.508092,-2.861252,NY4433212872,,
2533,Dove Crag,Lake District - Eastern Fells,EL05 Helvellyn-mell,Westmorland and Furness,"Sim,Hew,N,W,B,Sy,Fel",90,OL5S OL7N,792,2598,NY374104,NY 37456 10435,50,NY370108,742,cairn,rock 15m N at NY 37458 10451 is slightly higher than edge of cairn but higher ground may exist under cairn,Abney level,"https://www.streetmap.co.uk/map?X=337455&Y=510436&SV=337455,510436&A=Y&Z=115","https://www.google.com/maps/search/?api=1&query=54.4854,-2.96693",https://www.hill-bagging.co.uk/hill-view/?qu=S&rf=2533,337455,510436,54.4854,-2.96693,NY3745510436,,
2534,Watson's Dodd,Lake District - Eastern Fells,EL05 Helvellyn-mell,Cumberland/Westmorland and Furness,"W,B,Sy,Fel",90,OL5S,789,2589,NY335195,NY 33568 19562,11,NY 3382 1969,778,cairn,,obvious summit,"https://www.streetmap.co.uk/map?X=333567&Y=519563&SV=333567,519563&A=Y&Z=115","https://www.google.com/maps/search/?api=1&query=54.566917,-3.028995",https://www.hill-bagging.co.uk/hill-view/?qu=S&rf=2534,333567,519563,54.566917,-3.028995,NY3356719563,,
2535,Thornthwaite Crag,Lake District - Far Eastern Fells,EL06 Highstreet-arnside,Westmorland and Furness,"Sim,Hew,N,W,B,Sy,Fel",90,OL5S OL7N,784,2572,NY431100,NY 43150 10050,30.6,NY 4358 1008,753.4,rock 45m N of beacon and 10m E of wall,beacon (Wainwright/Birkett) 45m S at NY 43138 10008 is lower. Ground in wall 10m W is of similar height,,"https://www.streetmap.co.uk/map?X=343149&Y=510051&SV=343149,510051&A=Y&Z=115","https://www.google.com/maps/search/?api=1&query=54.482611,-2.878976",https://www.hill-bagging.co.uk/hill-view/?qu=S&rf=2535,343149,510051,54.482611,-2.878976,NY4314910051,,
2536,Kidsty Pike,Lake District - Far Eastern Fells,EL06 Highstreet-arnside,Westmorland and Furness,"N,W,B,Sy,Fel",90,OL5S,781,2562,NY447125,NY 44737 12579,15,NY 4462 1269,766,cairn,,obvious summit,"https://www.streetmap.co.uk/map?X=344736&Y=512580&SV=344736,512580&A=Y&Z=115","https://www.google.com/maps/search/?api=1&query=54.505513,-2.854959",https://www.hill-bagging.co.uk/hill-view/?qu=S&rf=2536,344736,512580,54.505513,-2.854959,NY4473612580,,
2537,Harter Fell (Mardale),Lake District - Far Eastern Fells,EL06 Highstreet-arnside,Westmorland and Furness,"Hu,Sim,Hew,N,sMa,W,B,Sy,Fel",90,OL5S OL7N,779,2556,NY459093,NY 45970 09326,149.2,NY 45235 09592,629.8,cairn,cairn is built on largely hidden small outcrop of rock,Leica NA730/Leica 530,"https://www.streetmap.co.uk/map?X=345969&Y=509327&SV=345969,509327&A=Y&Z=115","https://www.google.com/maps/search/?api=1&query=54.476414,-2.835323",https://www.hill-bagging.co.uk/hill-view/?qu=S&rf=2537,345969,509327,54.476414,-2.835323,NY4596909327,,
2538,Red Screes,Lake District - Eastern Fells,EL05 Helvellyn-mell,Westmorland and Furness,"Ma,Sim,Hew,N,W,B,Sy,Fel",90,OL7N,778.8,2555,NY396087,NY 39660 08756,260.9,NY 3879 0956,517.9,rock by shelter 15m SE of trig point,trig point is at NY 39650 08765; rock 5m SE of trig point is 5cm lower; ground 50m NW of trig point at NY 39614 08800 is c 1m lower,Abney level,"https://www.streetmap.co.uk/map?X=339659&Y=508757&SV=339659,508757&A=Y&Z=115","https://www.google.com/maps/search/?api=1&query=54.47058,-2.932572",https://www.hill-bagging.co.uk/hill-view/?qu=S&rf=2538,339659,508757,54.47058,-2.932572,NY3965908757,,
2539,Great Rigg,Lake District - Eastern Fells,EL05 Helvellyn-mell,Westmorland and Furness,"Sim,Hew,N,W,B,Sy,Fel",90,OL5S OL7N,766.4,2514,NY355104,NY 35592 10406,31,NY356107,735,rock 15m NE of cairn,cairn (NY 35584 10395) is Wainwright,,"https://www.streetmap.co.uk/map?X=335591&Y=510407&SV=335591,510407&A=Y&Z=115","https://www.google.com/maps/search/?api=1&query=54.484906,-2.995692",https://www.hill-bagging.co.uk/hill-view/?qu=S&rf=2539,335591,510407,54.484906,-2.995692,NY3559110407,,
2540,Stony Cove Pike,Lake District - Far Eastern Fells,EL06 Highstreet-arnside,Westmorland and Furness,"Ma,Sim,Hew,N,W,B,Sy,Fel",90,OL5S OL7N,763.7,2506,NY417100,NY 41782 10006,172,NY426103,592,rock,rock is about 1m higher than Wainwright cairn 90m E at NY 41867 09997; there are several cairns in the summit area,Abney level/Leica RX1250,"https://www.streetmap.co.uk/map?X=341781&Y=510007&SV=341781,510007&A=Y&Z=115","https://www.google.com/maps/search/?api=1&query=54.48206,-2.90008",https://www.hill-bagging.co.uk/hill-view/?qu=S&rf=2540,341781,510007,54.48206,-2.90008,NY4178110007,,
2541,Mardale Ill Bell,Lake District - Far Eastern Fells,EL06 Highstreet-arnside,Westmorland and Furness,"W,B,Sy,Fel,xN",90,OL5S OL7N,760,2493,NY447101,NY 44762 10120,13,NY444103,747,cairn,,,"https://www.streetmap.co.uk/map?X=344761&Y=510121&SV=344761,510121&A=Y&Z=115","https://www.google.com/maps/search/?api=1&query=54.483418,-2.854112",https://www.hill-bagging.co.uk/hill-view/?qu=S&rf=2541,344761,510121,54.483418,-2.854112,NY4476110121,,
2542,Ill Bell,Lake District - Far Eastern Fells,EL06 Highstreet-arnside,Westmorland and Furness,"Hu,Sim,Hew,N,W,B,Sy,Fel",90,OL7N,757,2484,NY436077,NY 43649 07752,124,NY433088,633,N of two large cairns 30m apart,S cairn at NY 43660 07720 is c 50cm lower,Abney level,"https://www.streetmap.co.uk/map?X=343648&Y=507753&SV=343648,507753&A=Y&Z=115","https://www.google.com/maps/search/?api=1&query=54.462017,-2.870837",https://www.hill-bagging.co.uk/hill-view/?qu=S&rf=2542,343648,507753,54.462017,-2.870837,NY4364807753,,
2543,Hart Side,Lake District - Eastern Fells,EL05 Helvellyn-mell,Westmorland and Furness,"N,sSim,W,B,Sy,Fel",90,OL5S,756,2480,NY359197,NY 35902 19729,24,NY357194,732,rock within 20m of 2 cairns,rock 6m NW is as high; NW cairn is at NY 35887 19748 and SE cairn at NY 35912 19734 and both are lower,Abney level,"https://www.streetmap.co.uk/map?X=335901&Y=519730&SV=335901,519730&A=Y&Z=115","https://www.google.com/maps/search/?api=1&query=54.568719,-2.992938",https://www.hill-bagging.co.uk/hill-view/?qu=S&rf=2543,335901,519730,54.568719,-2.992938,NY3590119730,,
2544,The Knott,Lake District - Far Eastern Fells,EL06 Highstreet-arnside,Westmorland and Furness,"W,B,Sy,xN",90,OL5S,739,2425,NY437126,NY 43711 12681,13,NY437126,726,cairn,,,"https://www.streetmap.co.uk/map?X=343710&Y=512682&SV=343710,512682&A=Y&Z=115","https://www.google.com/maps/search/?api=1&query=54.506316,-2.870821",https://www.hill-bagging.co.uk/hill-view/?qu=S&rf=2544,343710,512682,54.506316,-2.870821,NY4371012682,,
2545,Seat Sandal,Lake District - Eastern Fells,EL05 Helvellyn-mell,Westmorland and Furness,"Ma,Sim,Hew,N,W,B,Sy,Fel",90,OL5S,736.8,2417,NY344115,NY 34420 11530,151.9,NY 34877 11646,584.9,rock on knoll by ruined wall,30m ENE of cairn (Wainwright) at NY 34390 11515 and 40cm higher,Abney level/Leica 530,"https://www.streetmap.co.uk/map?X=334419&Y=511531&SV=334419,511531&A=Y&Z=115","https://www.google.com/maps/search/?api=1&query=54.494857,-3.014027",https://www.hill-bagging.co.uk/hill-view/?qu=S&rf=2545,334419,511531,54.494857,-3.014027,NY3441911531,,
2546,Kentmere Pike,Lake District - Far Eastern Fells,EL06 Highstreet-arnside,Westmorland and Furness,"Sim,Hew,N,W,B,Sy,Fel",90,OL7N,730.5,2397,NY465077,NY 46554 07791,39.7,NY 4636 0804,690.8,pointed rock 0.5m NW of trig point,trig point is 3m E of wall; cairn 3m W of wall is lower; other outcrops in summit area are all lower,Abney level,"https://www.streetmap.co.uk/map?X=346553&Y=507792&SV=346553,507792&A=Y&Z=115","https://www.google.com/maps/search/?api=1&query=54.462682,-2.826034",https://www.hill-bagging.co.uk/hill-view/?qu=S&rf=2546,346553,507792,54.462682,-2.826034,NY4655307792,,
2547,Clough Head,Lake District - Eastern Fells,EL05 Helvellyn-mell,Cumberland,"Hu,Sim,Hew,N,W,B,Sy,Fel",90,OL5S,726,2382,NY333225,NY 33394 22541,108,NY331214,618,trig point/wind shelter,,obvious summit,"https://www.streetmap.co.uk/map?X=333393&Y=522542&SV=333393,522542&A=Y&Z=115","https://www.google.com/maps/search/?api=1&query=54.593661,-3.032362",https://www.hill-bagging.co.uk/hill-view/?qu=S&rf=2547,333393,522542,54.593661,-3.032362,NY3339322542,,
2548,Froswick,Lake District - Far Eastern Fells,EL06 Highstreet-arnside,Westmorland and Furness,"Sim,Hew,N,W,B,Sy,Fel",90,OL7N,720,2362,NY435085,NY 43520 08525,75,NY434080,645,cairn,,,"https://www.streetmap.co.uk/map?X=343519&Y=508526&SV=343519,508526&A=Y&Z=115","https://www.google.com/maps/search/?api=1&query=54.468949,-2.872974",https://www.hill-bagging.co.uk/hill-view/?qu=S&rf=2548,343519,508526,54.468949,-2.872974,NY4351908526,,
2549,Birkhouse Moor,Lake District - Eastern Fells,EL05 Helvellyn-mell,Westmorland and Furness,"N,sSim,W,B,Sy,Fel",90,OL5S,717.6,2354,NY363159,NY 36342 15974,22.3,NY 3601 1563,695.3,cairn near wall,higher than large cairn 450m NNE at NY 36524 16393,,"https://www.streetmap.co.uk/map?X=336341&Y=515975&SV=336341,515975&A=Y&Z=115","https://www.google.com/maps/search/?api=1&query=54.535033,-2.98532",https://www.hill-bagging.co.uk/hill-view/?qu=S&rf=2549,336341,515975,54.535033,-2.98532,NY3634115975,,
2550,Branstree,Lake District - Far Eastern Fells,EL06 Highstreet-arnside,Westmorland and Furness,"Hu,Sim,Hew,N,W,B,Sy,Fel",90,OL5S OL7N,711.5,2334,NY477100,NY 47776 10001,137,NY 4746 0934,574.5,ground 80m NW of end of wall,circular trig station 40m SE at NY 47795 09971 is 0.25m lower,,"https://www.streetmap.co.uk/map?X=347775&Y=510002&SV=347775,510002&A=Y&Z=115","https://www.google.com/maps/search/?api=1&query=54.482669,-2.807575",https://www.hill-bagging.co.uk/hill-view/?qu=S&rf=2550,347775,510002,54.482669,-2.807575,NY4777510002,,
2551,Yoke,Lake District - Far Eastern Fells,EL06 Highstreet-arnside,Westmorland and Furness,"Sim,Hew,N,W,B,Sy,Fel",90,OL7N,707,2320,NY437067,NY 43773 06739,38.8,NY 4365 0727,668.2,small cairn on outcrop,,,"https://www.streetmap.co.uk/map?X=343772&Y=506740&SV=343772,506740&A=Y&Z=115","https://www.google.com/maps/search/?api=1&query=54.452928,-2.868731",https://www.hill-bagging.co.uk/hill-view/?qu=S&rf=2551,343772,506740,54.452928,-2.868731,NY4377206740,,
2552,Gray Crag,Lake District - Far Eastern Fells,EL06 Highstreet-arnside,Westmorland and Furness,"W,B,Sy,Fel,xN",90,OL5S,698.1,2290,NY427117,NY 42757 11707,13.7,NY 4285 1151,684.4,rock,this is Nuttall summit S of wall; Wainwright summit is N of wall at NY 42672 11869,,"https://www.streetmap.co.uk/map?X=342756&Y=511708&SV=342756,511708&A=Y&Z=115","https://www.google.com/maps/search/?api=1&query=54.497457,-2.885363",https://www.hill-bagging.co.uk/hill-view/?qu=S&rf=2552,342756,511708,54.497457,-2.885363,NY4275611708,,
2553,Rest Dodd,Lake District - Far Eastern Fells,EL06 Highstreet-arnside,Westmorland and Furness,"Hu,Sim,Hew,N,W,B,Sy,Fel",90,OL5S,696,2283,NY432136,NY 43256 13646,109,NY434132,587,grass mound,cairns 55m NNE at NY 43271 13701(Wainwright's cairn) & 80m NNW at NY 43237 13718 are lower,Abney level,"https://www.streetmap.co.uk/map?X=343255&Y=513647&SV=343255,513647&A=Y&Z=115","https://www.google.com/maps/search/?api=1&query=54.514937,-2.878033",https://www.hill-bagging.co.uk/hill-view/?qu=S&rf=2553,343255,513647,54.514937,-2.878033,NY4325513647,,
2554,Sheffield Pike,Lake District - Eastern Fells,EL05 Helvellyn-mell,Westmorland and Furness,"Sim,Hew,N,sHu,W,B,Sy,Fel",90,OL5S,676.1,2218,NY369181,NY 36911 18181,93,NY 3623 1820,583.1,cairn,,obvious summit,"https://www.streetmap.co.uk/map?X=336910&Y=518182&SV=336910,518182&A=Y&Z=115","https://www.google.com/maps/search/?api=1&query=54.554936,-2.977002",https://www.hill-bagging.co.uk/hill-view/?qu=S&rf=2554,336910,518182,54.554936,-2.977002,NY3691018182,,
2556,Loadpot Hill,Lake District - Far Eastern Fells,EL06 Highstreet-arnside,Westmorland and Furness,"Sim,Hew,N,W,B,Sy,Fel",90,OL5S,672,2205,NY456180,NY 45636 18046,50,NY456174,622,no feature: ground 80m SW of trig point,trig point is at NY 45686 18123 and is 40cm lower; boundary stone 100m ENE at NY 45731 18083 is <40cm lower,Abney level,"https://www.streetmap.co.uk/map?X=345635&Y=518047&SV=345635,518047&A=Y&Z=115","https://www.google.com/maps/search/?api=1&query=54.554737,-2.842087",https://www.hill-bagging.co.uk/hill-view/?qu=S&rf=2556,345635,518047,54.554737,-2.842087,NY4563518047,,
2557,Wether Hill,Lake District - Far Eastern Fells,EL06 Highstreet-arnside,Westmorland and Furness,"W,B,Sy,Fel,xN",90,OL5S,672.5,2206,NY455167,NY 45597 16767,4.3,NY 4560 1657,668.2,no feature: rough grass,cairn (Wainwright/Birkett) 30m NW at NY45571 16782 is 1m lower; summit is 3m lower than ground 400m S (Hill 2927),Abney level,"https://www.streetmap.co.uk/map?X=345596&Y=516768&SV=345596,516768&A=Y&Z=115","https://www.google.com/maps/search/?api=1&query=54.543239,-2.842453",https://www.hill-bagging.co.uk/hill-view/?qu=S&rf=2557,345596,516768,54.543239,-2.842453,NY4559616768,,
2559,Tarn Crag (Sleddale),Lake District - Far Eastern Fells,EL06 Highstreet-arnside,Westmorland and Furness,"Ma,Sim,Hew,N,W,B,Sy,Fel",90,OL7N,663.9,2178,NY487078,NY 48791 07865,160.3,NY 4851 0886,503.6,no feature: grassy rise,tall pillar 60m S at NY 48784 07802; cairn 60m ESE at NY 48848 07851 is c 0.5m lower and is Wainwright's summit,Abney level,"https://www.streetmap.co.uk/map?X=348790&Y=507866&SV=348790,507866&A=Y&Z=115","https://www.google.com/maps/search/?api=1&query=54.463578,-2.791539",https://www.hill-bagging.co.uk/hill-view/?qu=S&rf=2559,348790,507866,54.463578,-2.791539,NY4879007866,,
2561,Place Fell,Lake District - Far Eastern Fells,EL06 Highstreet-arnside,Westmorland and Furness,"Ma,Sim,Hew,N,W,B,Sy,Fel",90,OL5S,657,2156,NY405169,NY 40535 16945,261,NY 4098 1569,395.8,rock outcrop 4m SE of cairn,outcrop is 0.3m higher than trig point 30m E (NY 40560 16950); cairn is Wainwright summit.,Abney level,"https://www.streetmap.co.uk/map?X=340534&Y=516946&SV=340534,516946&A=Y&Z=115","https://www.google.com/maps/search/?api=1&query=54.544269,-2.920725",https://www.hill-bagging.co.uk/hill-view/?qu=S&rf=2561,340534,516946,54.544269,-2.920725,NY4053416946,,
2562,High Pike (Scandale),Lake District - Eastern Fells,EL05 Helvellyn-mell,Westmorland and Furness,"W,B,Sy,Fel",90,OL7N,657,2156,NY374088,NY 37443 08830,1,NY 3743 0882,655.9,small cairn on rock outcrop,Wainwright summit; ground 70m NNW at NY 37408 08891 on W side of wall is 0.5m higher,Abney level,"https://www.streetmap.co.uk/map?X=337442&Y=508831&SV=337442,508831&A=Y&Z=115","https://www.google.com/maps/search/?api=1&query=54.470976,-2.966791",https://www.hill-bagging.co.uk/hill-view/?qu=S&rf=2562,337442,508831,54.470976,-2.966791,NY3744208831,,
2563,Selside Pike,Lake District - Far Eastern Fells,EL06 Highstreet-arnside,Westmorland and Furness,"Sim,Hew,N,W,B,Sy,Fel",90,OL5S,655,2149,NY490111,NY 49062 11145,36,NY490108,619,grassy rise with embedded rocks 40m SSW of windshelter,windshelter (Wainwright & Birkett) is at NY 49073 11186 and is 75cm lower,Abney level,"https://www.streetmap.co.uk/map?X=349061&Y=511146&SV=349061,511146&A=Y&Z=115","https://www.google.com/maps/search/?api=1&query=54.49308,-2.787925",https://www.hill-bagging.co.uk/hill-view/?qu=S&rf=2563,349061,511146,54.49308,-2.787925,NY4906111146,,
2564,Middle Dodd,Lake District - Eastern Fells,EL05 Helvellyn-mell,Westmorland and Furness,"W,B,Sy,Fel",90,OL5S OL7N,654,2146,NY397095,NY 39736 09574,10,NY396094,644,cairn,nearby rock is higher than cairn base; ground to S is lower,Abney level,"https://www.streetmap.co.uk/map?X=339735&Y=509575&SV=339735,509575&A=Y&Z=115","https://www.google.com/maps/search/?api=1&query=54.477939,-2.931566",https://www.hill-bagging.co.uk/hill-view/?qu=S&rf=2564,339735,509575,54.477939,-2.931566,NY3973509575,,
2565,Grey Crag (Sleddale Fell),Lake District - Far Eastern Fells,EL06 Highstreet-arnside,Westmorland and Furness,"Sim,Hew,N,W,B,Sy,Fel",90,OL7N,638,2093,NY497072,NY 49714 07220,41,NY493077,597,rocky outcrop,outcrop is 40m N of Wainwright cairn (NY 49713 07177) and c 1.7m higher,Abney level,"https://www.streetmap.co.uk/map?X=349713&Y=507221&SV=349713,507221&A=Y&Z=115","https://www.google.com/maps/search/?api=1&query=54.457874,-2.777191",https://www.hill-bagging.co.uk/hill-view/?qu=S&rf=2565,349713,507221,54.457874,-2.777191,NY4971307221,,
2566,Little Hart Crag (Little Hart Crag - West Top),Lake District - Eastern Fells,EL05 Helvellyn-mell,Westmorland and Furness,"Sim,Hew,N,W,B,Sy,Fel",90,OL5S OL7N,637,2090,NY387100,NY 38731 10030,34,NY383102,603,cairn,ground 120m ENE at NY 38853 10053 and 20m NW at NY 38722 10047 is lower,Abney level,"https://www.streetmap.co.uk/map?X=338730&Y=510031&SV=338730,510031&A=Y&Z=115","https://www.google.com/maps/search/?api=1&query=54.481916,-2.947169",https://www.hill-bagging.co.uk/hill-view/?qu=S&rf=2566,338730,510031,54.481916,-2.947169,NY3873010031,,
2570,Birks,Lake District - Eastern Fells,EL05 Helvellyn-mell,Westmorland and Furness,"N,sSim,W,B,Sy,Fel",90,OL5S,624,2047,NY380143,NY 38020 14357,20.3,NY 3754 1405,603.7,no feature: grass mound,this is Nuttall/Subsimm/Birkett summit; cairn (Wainwright) 200m NE at NY 38179 14485 is lower,Leica Disto/Leica RX1250,"https://www.streetmap.co.uk/map?X=338019&Y=514358&SV=338019,514358&A=Y&Z=115","https://www.google.com/maps/search/?api=1&query=54.520711,-2.959051",https://www.hill-bagging.co.uk/hill-view/?qu=S&rf=2570,338019,514358,54.520711,-2.959051,NY3801914358,,
2572,Hartsop Dodd,Lake District - Far Eastern Fells,EL06 Highstreet-arnside,Westmorland and Furness,"N,sSim,W,B,Sy,Fel",90,OL5S,619,2031,NY411118,NY 41134 11848,23,NY414114,596,remains of cairn on grassy mound,fence post by wall (Wainwright summit) is 7m N of small cairn; larger cairn 35m NW at NY 41107 11874 is lower,Abney level,"https://www.streetmap.co.uk/map?X=341133&Y=511849&SV=341133,511849&A=Y&Z=115","https://www.google.com/maps/search/?api=1&query=54.498538,-2.910448",https://www.hill-bagging.co.uk/hill-view/?qu=S&rf=2572,341133,511849,54.498538,-2.910448,NY4113311849,,
2573,Heron Pike (Rydal),Lake District - Eastern Fells,EL05 Helvellyn-mell,Westmorland and Furness,"N,sSim,W,B,Sy",90,OL7N,612,2008,NY355083,NY 35598 08310,21,NY356084,591,outcrop,cairn has been destroyed,,"https://www.streetmap.co.uk/map?X=335597&Y=508311&SV=335597,508311&A=Y&Z=115","https://www.google.com/maps/search/?api=1&query=54.466072,-2.995142",https://www.hill-bagging.co.uk/hill-view/?qu=S&rf=2573,335597,508311,54.466072,-2.995142,NY3559708311,,
2574,Shipman Knotts,Lake District - Far Eastern Fells,EL06 Highstreet-arnside,Westmorland and Furness,"W,B,Sy,Fel",90,OL7N,587,1926,NY472062,NY 47270 06213,11,NY472064,576,small cairn on outcrop 25m E of wall,small cairn by wall 90m N at NY 47254 06306 (Birkett) is c 40cm lower; rock 3m W of wall is c 30cm lower,Abney level,"https://www.streetmap.co.uk/map?X=347269&Y=506214&SV=347269,506214&A=Y&Z=115","https://www.google.com/maps/search/?api=1&query=54.448577,-2.814707",https://www.hill-bagging.co.uk/hill-view/?qu=S&rf=2574,347269,506214,54.448577,-2.814707,NY4726906214,,
2577,The Nab,Lake District - Far Eastern Fells,EL06 Highstreet-arnside,Westmorland and Furness,"5,Dew,W,B,Sy",90,OL5S,576,1890,NY434151,NY 43428 15197,63,NY435145,513,cairn,Wainwright and Birkett; ground 30m NE at NY 43440 15223 is lower,Abney level,"https://www.streetmap.co.uk/map?X=343427&Y=515198&SV=343427,515198&A=Y&Z=115","https://www.google.com/maps/search/?api=1&query=54.528893,-2.875675",https://www.hill-bagging.co.uk/hill-view/?qu=S&rf=2577,343427,515198,54.528893,-2.875675,NY4342715198,,
2578,Hartsop Above How,Lake District - Eastern Fells,EL05 Helvellyn-mell,Westmorland and Furness,"s5,W,B,Sy,Fel",90,OL5S,586.1,1923,NY383120,NY 38318 12003,29.5,NY 3807 1191,556.7,knoll,local topography fits Wainwright's sketch and knoll is several metres higher than any other top on ridge; embedded rock on knoll 240m away at NY 38540 12105 is probably Wainwright's NE summit,Abney level,"https://www.streetmap.co.uk/map?X=338317&Y=512004&SV=338317,512004&A=Y&Z=115","https://www.google.com/maps/search/?api=1&query=54.499595,-2.953955",https://www.hill-bagging.co.uk/hill-view/?qu=S&rf=2578,338317,512004,54.499595,-2.953955,NY3831712004,,
2579,Angletarn Pikes,Lake District - Far Eastern Fells,EL06 Highstreet-arnside,Westmorland and Furness,"5,Dew,W,B,Sy,Fel",90,OL5S,566,1857,NY413148,NY 41331 14825,77.4,NY 4186 1449,488.7,rock,rock 30m to NE at NY 41355 14844 is 25cm lower,Abney level,"https://www.streetmap.co.uk/map?X=341330&Y=514826&SV=341330,514826&A=Y&Z=115","https://www.google.com/maps/search/?api=1&query=54.525312,-2.907999",https://www.hill-bagging.co.uk/hill-view/?qu=S&rf=2579,341330,514826,54.525312,-2.907999,NY4133014826,,
2582,Brock Crags,Lake District - Far Eastern Fells,EL06 Highstreet-arnside,Westmorland and Furness,"W,B,Sy,Fel",90,OL5S,561.2,1841,NY416136,NY 41666 13661,9.9,NY 4175 1365,551.3,large cairn,true summit is 230m E at NY 41904 13699,Abney level,"https://www.streetmap.co.uk/map?X=341665&Y=513662&SV=341665,513662&A=Y&Z=115","https://www.google.com/maps/search/?api=1&query=54.514891,-2.902593",https://www.hill-bagging.co.uk/hill-view/?qu=S&rf=2582,341665,513662,54.514891,-2.902593,NY4166513662,,
2583,Great Mell Fell,Lake District - Eastern Fells,EL05 Helvellyn-mell,Westmorland and Furness,"Ma,5,Dew,W,B,Sy,Fel",90,OL5S,536.6,1760,NY396253,NY 39682 25367,200.7,NY 3926 2466,335.9,cairn,,,"https://www.streetmap.co.uk/map?X=339681&Y=525368&SV=339681,525368&A=Y&Z=115","https://www.google.com/maps/search/?api=1&query=54.619846,-2.935641",https://www.hill-bagging.co.uk/hill-view/?qu=S&rf=2583,339681,525368,54.619846,-2.935641,NY3968125368,,
2584,Arthur's Pike,Lake District - Far Eastern Fells,EL06 Highstreet-arnside,Westmorland and Furness,"W,B,Sy,Fel",90,OL5S,533,1749,NY460206,NY 46074 20677,4,NY461204,529,cairn,probably Wainwright/Birkett summit; also cairn 190m SSE at NY 46165 20510 and knoll 50m S at NY 46056 20627 may be as high,,"https://www.streetmap.co.uk/map?X=346073&Y=520678&SV=346073,520678&A=Y&Z=115","https://www.google.com/maps/search/?api=1&query=54.578426,-2.835799",https://www.hill-bagging.co.uk/hill-view/?qu=S&rf=2584,346073,520678,54.578426,-2.835799,NY4607320678,,
2588,Bonscale Pike,Lake District - Far Eastern Fells,EL06 Highstreet-arnside,Westmorland and Furness,"W,B,Sy,Fel",90,OL5S,524,1719,NY453200,NY 45347 20085,1,NY453197,523,small cairn,probably Wainwright summit but slightly lower than cairn 140m S at NY 45314 19950,,"https://www.streetmap.co.uk/map?X=345346&Y=520086&SV=345346,520086&A=Y&Z=115","https://www.google.com/maps/search/?api=1&query=54.573028,-2.846935",https://www.hill-bagging.co.uk/hill-view/?qu=S&rf=2588,345346,520086,54.573028,-2.846935,NY4534620086,,
2589,High Hartsop Dodd,Lake District - Eastern Fells,EL05 Helvellyn-mell,Westmorland and Furness,"W,B,Sy,Fel",90,OL5S OL7N,519,1703,NY393107,NY 39356 10768,3,NY393107,516,tiny cairn,,,"https://www.streetmap.co.uk/map?X=339355&Y=510769&SV=339355,510769&A=Y&Z=115","https://www.google.com/maps/search/?api=1&query=54.488623,-2.937675",https://www.hill-bagging.co.uk/hill-view/?qu=S&rf=2589,339355,510769,54.488623,-2.937675,NY3935510769,,
2590,Sallows,Lake District - Far Eastern Fells,EL06 Highstreet-arnside,Westmorland and Furness,"5,Dew,W,B,Sy,Fel",90,OL7N,516,1693,NY436039,NY 43657 03980,69,NY435043,447,shale and grass mound,,Abney level,"https://www.streetmap.co.uk/map?X=343656&Y=503981&SV=343656,503981&A=Y&Z=115","https://www.google.com/maps/search/?api=1&query=54.428122,-2.869995",https://www.hill-bagging.co.uk/hill-view/?qu=S&rf=2590,343656,503981,54.428122,-2.869995,NY4365603981,,
2595,Beda Fell (Beda Head),Lake District - Far Eastern Fells,EL06 Highstreet-arnside,Westmorland and Furness,"5,Dew,W,B,Sy,Fel",90,OL5S,509,1670,NY428171,NY 42888 17162,59,NY424164,450,cairn,ground 140m SW at NY 42800 17048 is as high,Abney level,"https://www.streetmap.co.uk/map?X=342887&Y=517163&SV=342887,517163&A=Y&Z=115","https://www.google.com/maps/search/?api=1&query=54.54649,-2.884399",https://www.hill-bagging.co.uk/hill-view/?qu=S&rf=2595,342887,517163,54.54649,-2.884399,NY4288717163,,
2596,Low Pike,Lake District - Eastern Fells,EL05 Helvellyn-mell,Westmorland and Furness,"W,B,Sy,Fel",90,OL7N,508,1667,NY373078,NY 37352 07839,18,NY373080,490,ground under highest point of wall near cairn,,Abney level,"https://www.streetmap.co.uk/map?X=337351&Y=507840&SV=337351,507840&A=Y&Z=115","https://www.google.com/maps/search/?api=1&query=54.46206,-2.967985",https://www.hill-bagging.co.uk/hill-view/?qu=S&rf=2596,337351,507840,54.46206,-2.967985,NY3735107840,,
2598,Little Mell Fell,Lake District - Eastern Fells,EL05 Helvellyn-mell,Westmorland and Furness,"Ma,5,Dew,W,B,Sy,Fel",90,OL5S,505.1,1657,NY423240,NY 42324 24017,224.8,NY 3980 2253,280.3,ground within 1m of trig point,ground 30m W at NY 42296 24019 & 30m WSW at NY 42300 24006 are both of similar height,Abney level,"https://www.streetmap.co.uk/map?X=342323&Y=524018&SV=342323,524018&A=Y&Z=115","https://www.google.com/maps/search/?api=1&query=54.608024,-2.894465",https://www.hill-bagging.co.uk/hill-view/?qu=S&rf=2598,342323,524018,54.608024,-2.894465,NY4232324018,,
2601,Stone Arthur,Lake District - Eastern Fells,EL05 Helvellyn-mell,Westmorland and Furness,"W,B,Sy,Fel",90,OL5S OL7N,504,1654,NY347092,NY 34754 09235,3,NY347092,501,outcrop,ground 25m N at NY 34774 09250 is at least as high,Abney level,"https://www.streetmap.co.uk/map?X=334753&Y=509236&SV=334753,509236&A=Y&Z=115","https://www.google.com/maps/search/?api=1&query=54.474276,-3.008366",https://www.hill-bagging.co.uk/hill-view/?qu=S&rf=2601,334753,509236,54.474276,-3.008366,NY3475309236,,
2607,Baystones (Wansfell),Lake District - Far Eastern Fells,EL06 Highstreet-arnside,Westmorland and Furness,"Hu,4,sMa,W,Fel",90,OL7N,486.9,1597,NY403051,NY 40314 05143,147.7,NY 40614 06556,339.2,rock 3m W of cairn,"mound 130m NE at NY 40355 05275 is 0.83m lower and is Hill 3838, the 487m spot height on 1:50000 map",Leica NA730/Leica 530,"https://www.streetmap.co.uk/map?X=340313&Y=505144&SV=340313,505144&A=Y&Z=115","https://www.google.com/maps/search/?api=1&query=54.438194,-2.921751",https://www.hill-bagging.co.uk/hill-view/?qu=S&rf=2607,340313,505144,54.438194,-2.921751,NY4031305144,,
2609,Sour Howes,Lake District - Far Eastern Fells,EL06 Highstreet-arnside,Westmorland and Furness,"4,W,B,Sy",90,OL7N,483,1585,NY427032,NY 42765 03217,35,NY 4282 0373,448,grassy hummock,Wainwright's summit is probably shaly ridge 60m ESE NY 42832 03198; Wainwright's sketch map may be misleading as it indicates summit is further SW where ground is obviously lower,Abney level,"https://www.streetmap.co.uk/map?X=342764&Y=503218&SV=342764,503218&A=Y&Z=115","https://www.google.com/maps/search/?api=1&query=54.421166,-2.883595",https://www.hill-bagging.co.uk/hill-view/?qu=S&rf=2609,342764,503218,54.421166,-2.883595,NY4276403218,,
2610,Gowbarrow Fell,Lake District - Eastern Fells,EL05 Helvellyn-mell,Westmorland and Furness,"W,B,Sy,Fel",90,OL5S,481.2,1579,NY407218,NY 40762 21821,9,NY406217,472,trig point,trig point is Wainwright/Birkett but rocks 3m S and 8m S are higher (16 cm below FB); N knoll of S top (Hill 7833) 105m S at NY 40730 21722 is 1cm higher than rocks,Leica NA730/Leica 530,"https://www.streetmap.co.uk/map?X=340761&Y=521822&SV=340761,521822&A=Y&Z=115","https://www.google.com/maps/search/?api=1&query=54.58811,-2.918201",https://www.hill-bagging.co.uk/hill-view/?qu=S&rf=2610,340761,521822,54.58811,-2.918201,NY4076121822,,
2611,Nab Scar,Lake District - Eastern Fells,EL05 Helvellyn-mell,Westmorland and Furness,"W,B,Sy,Fel",90,OL7N,450,1476,NY355072,NY 35537 07236,2,NY355072,448,large cairn beyond wall,,,"https://www.streetmap.co.uk/map?X=335536&Y=507237&SV=335536,507237&A=Y&Z=115","https://www.google.com/maps/search/?api=1&query=54.456414,-2.995849",https://www.hill-bagging.co.uk/hill-view/?qu=S&rf=2611,335536,507237,54.456414,-2.995849,NY3553607237,,
